# LAS format log file from PETREL
# Project units are specified as depth units
#==================================================================
~Version information
VERS.   2.0:
WRAP.   NO:
#==================================================================
~Well
STRT .m      350.00000000 :
STOP .m      2957.0000000 :
STEP .m     0.10000000 :
NULL .        -999.250000 :
COMP.           : COMPANY
WELL.  P-132   : WELL
FLD.            : FIELD
LOC.            : LOCATION
SRVC.           : SERVICE COMPANY
DATE.  2014-09-16 16:49:33   : Log Export Date {yyyy-MM-dd HH:mm:ss}
PROV.           : PROVINCE
UWI.      : UNIQUE WELL ID
API.            : API NUMBER
#==================================================================
~Curve
DEPT .m                   : DEPTH
Sonic_despiked .us/ft     : Sonic_despiked
RHOB_despiked .g/cm3      : RHOB_despiked
two-waytime .ms           : two-way time
~Parameter
#==================================================================
~Ascii
# ...
 1074.8000000 51.556945801 2.8929960728 552.49017334
 1074.9000000 51.529785156 2.8969669342 552.52526855
 1075.0000000 51.502620697 2.9010701180 552.56042480
 1075.1000000 51.475460052 2.9044661522 552.59552002
 1075.2000000 51.448295593 2.9069190025 552.63061523
 1075.3000000 51.421134949 2.9087338448 552.66571045
 1075.4000000 51.393970490 2.9102017879 552.70080566
 1075.5000000 51.366809845 2.9116048813 552.73590088
 1075.6000000 51.339649200 2.9131350517 552.77099609
 1075.7000000 51.312484741 2.9147548676 552.80609131
 1075.8000000 51.285324097 2.9163658619 552.84118652
 1075.9000000 51.258159637 2.9180071354 552.87628174
 1076.0000000 51.230998993 2.9197719097 552.91143799
 1076.1000000 51.203834534 2.9215228558 552.94653320
 1076.2000000 51.176673889 2.9226350784 552.98162842
 1076.3000000 51.149509430 2.9226989746 553.01672363
 1076.4000000 51.122348785 2.9219169617 553.05181885
 1076.5000000 51.095184326 2.9214599133 553.08691406
 1076.6000000 51.068023682 2.9225249290 553.12200928
 1076.7000000 51.040859222 2.9253640175 553.15710449
 1076.8000000 51.013698578 2.9291009903 553.19219971
 1076.9000000 50.986534119 2.9287753105 553.22735596
 1077.0000000 50.959373474 2.9284496307 553.26245117
 1077.1000000 50.954154968 2.9281239510 553.29754639
 1077.2000000 50.948936462 2.9277982712 553.33264160
 1077.3000000 50.943721771 2.9274725914 553.36773682
 1077.4000000 50.938503265 2.9271469116 553.40283203
 1077.5000000 50.933284760 2.9268209934 553.43792725
 1077.6000000 50.928066254 2.9264953136 553.47302246
 1077.7000000 50.922847748 2.9261696339 553.50811768
 1077.8000000 50.917629242 2.9258439541 553.54321289
 1077.9000000 50.912410736 2.9255182743 553.57836914
 1078.0000000 50.907196045 2.9251925945 553.61346436
 1078.1000000 50.901977539 2.9248669147 553.64855957
 1078.2000000 50.896759033 2.9249818325 553.68365479
 1078.3000000 50.891540527 2.9245028496 553.71875000
 1078.4000000 51.332866669 2.9225549698 553.75384521
 1078.5000000 51.338035583 2.9194641113 553.78894043
 1078.6000000 51.343200684 2.9159929752 553.82403564
 1078.7000000 51.348369598 2.9127380848 553.85913086
 1078.8000000 51.338047028 2.9096651077 553.89428711
 1078.9000000 51.327724457 2.9061470032 553.92938232
 1079.0000000 51.317398071 2.9012858868 553.96447754
 1079.1000000 51.307075500 2.8943369389 553.99957275
 1079.2000000 51.296752930 2.8856201172 554.03466797
 1079.3000000 51.286430359 2.8760139942 554.06976318
 1079.4000000 51.276103973 2.8763513565 554.10485840
 1079.5000000 51.265781403 2.8766887188 554.13995361
 1079.6000000 51.255458832 2.8770260811 554.17504883
 1079.7000000 51.245136261 2.8773634434 554.21014404
 1079.8000000 51.234809875 2.8777008057 554.24530029
 1079.9000000 51.224487305 2.8780381680 554.28039551
 1080.0000000 51.214164734 2.8783755302 554.31549072
 1080.1000000 51.203842163 2.8787128925 554.35058594
 1080.2000000 51.193515778 2.8884589672 554.38568115
 1080.3000000 51.183193207 2.8988168240 554.42077637
 1080.4000000 51.172870636 2.9075729847 554.45587158
 1080.5000000 51.091396332 2.9137539864 554.49096680
 1080.6000000 51.077121735 2.9174580574 554.52606201
 1080.7000000 51.062843323 2.9194030762 554.56121826
 1080.8000000 51.048568726 2.9200091362 554.59631348
 1080.9000000 51.034290314 2.9187490940 554.63140869
 1081.0000000 51.020015717 2.9148390293 554.66650391
 1081.1000000 51.005737305 2.9091420174 554.70159912
 1081.2000000 50.991462708 2.9029169083 554.73669434
 1081.3000000 50.977188110 2.8978898525 554.77178955
 1081.4000000 50.962909698 2.8946800232 554.80688477
 1081.5000000 50.948635101 2.8929741383 554.84197998
 1081.6000000 50.934356689 2.8918769360 554.87707520
 1081.7000000 50.920082092 2.8904590607 554.91223145
 1081.8000000 50.905803680 2.8887479305 554.94732666
 1081.9000000 50.891529083 2.8878431320 554.98242188
 1082.0000000 50.877254486 2.8893101215 555.01751709
 1082.1000000 50.862976074 2.8935778141 555.05261230
 1082.2000000 50.848701477 2.8995099068 555.08770752
 1082.3000000 50.834423065 2.9034569263 555.12280273
 1082.4000000 50.820148468 2.9019150734 555.15789795
 1082.5000000 50.805870056 2.8932890892 555.19299316
 1082.6000000 50.791595459 2.8790280819 555.22814941
 1082.7000000 50.777317047 2.8779132366 555.26324463
 1082.8000000 50.763042450 2.8767983913 555.29833984
 1082.9000000 50.748767853 2.8756833076 555.33343506
 1083.0000000 50.734489441 2.8745684624 555.36853027
 1083.1000000 50.720214844 2.8734536171 555.40362549
 1083.2000000 50.705936432 2.8723387718 555.43872070
 1083.3000000 50.691661835 2.8712236881 555.47381592
 1083.4000000 50.677383423 2.8701088428 555.50891113
 1083.5000000 50.663108826 2.8689939976 555.54406738
 1083.6000000 50.648834229 2.8782548904 555.57916260
 1083.7000000 50.634555817 2.8865211010 555.61425781
 1083.8000000 50.620281219 2.8910758495 555.64935303
 1083.9000000 50.606002808 2.8896560669 555.68444824
 1084.0000000 50.591728210 2.8834779263 555.71954346
 1084.1000000 50.577449799 2.8749837875 555.75463867
 1084.2000000 50.563175201 2.8676888943 555.78973389
 1084.3000000 50.548896790 2.8689515591 555.82482910
 1084.4000000 50.534622192 2.8702144623 555.85992432
 1084.5000000 50.347248077 2.8714773655 555.89508057
 1084.6000000 50.329986572 2.8727400303 555.93017578
 1084.7000000 50.312725067 2.8805069923 555.96527100
 1084.8000000 50.295467377 2.8885171413 556.00036621
 1084.9000000 50.278205872 2.8948569298 556.03546143
 1085.0000000 50.260944366 2.8984208107 556.07055664
 1085.1000000 50.243682861 2.8987648487 556.10565186
 1085.2000000 50.226421356 2.8964021206 556.14074707
 1085.3000000 50.209163666 2.8917980194 556.17584229
 1085.4000000 50.191902161 2.8848040104 556.21099854
 1085.5000000 50.174640656 2.8760950565 556.24609375
 1085.6000000 50.157379150 2.8757367134 556.28118896
 1085.7000000 50.140117645 2.8753781319 556.31628418
 1085.8000000 50.122859955 2.8750197887 556.35137939
 1085.9000000 50.105598450 2.8746612072 556.38647461
 1086.0000000 50.088336945 2.8743028641 556.42156982
 1086.1000000 50.071075439 2.8795800209 556.45666504
 1086.2000000 50.053817749 2.8834528923 556.49176025
 1086.3000000 50.036556244 2.8874261379 556.52685547
 1086.4000000 50.019294739 2.8940591812 556.56201172
 1086.5000000 50.002033234 2.9043450356 556.59710693
 1086.6000000 49.984771729 2.9174170494 556.63220215
 1086.7000000 49.967514038 2.9315581322 556.66729736
 1086.8000000 49.950252533 2.9447081089 556.70239258
 1086.9000000 49.932991028 2.9449822903 556.73748779
 1087.0000000 49.915729523 2.9452564716 556.77258301
 1087.1000000 49.898468018 2.9455306530 556.80767822
 1087.2000000 49.881210327 2.9458048344 556.84277344
 1087.3000000 49.863948822 2.9460790157 556.87792969
 1087.4000000 49.846687317 2.9463531971 556.91302490
 1087.5000000 49.979583740 2.9466273785 556.94812012
 1087.6000000 50.092048645 2.9469015598 556.98321533
 1087.7000000 50.155754089 2.9471757412 557.01831055
 1087.8000000 50.066753387 2.9474499226 557.05340576
 1087.9000000 49.969520569 2.9477243423 557.08850098
 1088.0000000 49.835716248 2.9479985237 557.12359619
 1088.1000000 49.824180603 2.9482727051 557.15869141
 1088.2000000 49.812644958 2.9485468864 557.19378662
 1088.3000000 49.801109314 2.9488210678 557.22894287
 1088.4000000 49.789573669 2.9490952492 557.26403809
 1088.5000000 49.778038025 2.9493694305 557.29913330
 1088.6000000 49.766502380 2.9496436119 557.33422852
 1088.7000000 49.754966736 2.9499177933 557.36932373
 1088.8000000 49.743431091 2.9501919746 557.40441895
 1088.9000000 49.731895447 2.9504661560 557.43951416
 1089.0000000 49.720359802 2.9449110031 557.47460938
 1089.1000000 49.708824158 2.9408159256 557.50970459
 1089.2000000 49.697288513 2.9395120144 557.54486084
 1089.3000000 49.685752869 2.9417519569 557.57995605
 1089.4000000 49.674507141 2.9458329678 557.61505127
 1089.5000000 49.663257599 2.9495868683 557.65014648
 1089.6000000 49.652011871 2.9503560066 557.68524170
 1089.7000000 49.640762329 2.9474170208 557.72033691
 1089.8000000 49.629516602 2.9422271252 557.75543213
