# LAS format log file from PETREL
# Project units are specified as depth units
#==================================================================
~Version information
VERS.   2.0:
WRAP.   NO:
#==================================================================
~Well
STRT .m      350.00000000 :
STOP .m      2957.0000000 :
STEP .m     0.10000000 :
NULL .        -999.250000 :
COMP.           : COMPANY
WELL.  P-132   : WELL
FLD.            : FIELD
LOC.            : LOCATION
SRVC.           : SERVICE COMPANY
DATE.  2014-09-16 16:49:33   : Log Export Date {yyyy-MM-dd HH:mm:ss}
PROV.           : PROVINCE
UWI.      : UNIQUE WELL ID
API.            : API NUMBER
#==================================================================
~Curve
DEPT .m                   : DEPTH
Sonic_despiked .us/ft     : Sonic_despiked
RHOB_despiked .g/cm3      : RHOB_despiked
two-waytime .ms           : two-way time
~Parameter
#==================================================================
~Ascii
# ...
 561.40000000 62.113361359 2.4460890293 335.63717651
 561.50000000 62.114887238 2.4511730671 335.67950439
 561.60000000 62.085014343 2.4570047855 335.72183228
 561.70000000 61.953342438 2.4630300999 335.76412964
 561.80000000 61.778083801 2.4687500000 335.80645752
 561.90000000 61.791717529 2.4686689377 335.84878540
 562.00000000 61.805351257 2.4685878754 335.89111328
 562.10000000 61.818988800 2.4685070515 335.93344116
 562.20000000 61.832622528 2.4684259892 335.97576904
 562.30000000 61.846256256 2.4683449268 336.01809692
 562.40000000 61.859889984 2.4660778046 336.06042480
 562.50000000 61.873523712 2.4661378860 336.10272217
 562.60000000 61.887161255 2.4689750671 336.14505005
 562.70000000 61.900794983 2.4690005779 336.18737793
 562.80000000 61.914428711 2.4690263271 336.22970581
 562.90000000 61.928062439 2.4690518379 336.27203369
 563.00000000 61.941696167 2.4690775871 336.31436157
 563.10000000 61.955333710 2.4691030979 336.35668945
 563.20000000 61.968967438 2.4691288471 336.39901733
 563.30000000 61.982601166 2.4691543579 336.44134521
 563.40000000 62.016437531 2.4691801071 336.48364258
 563.50000000 62.074729919 2.4692056179 336.52597046
 563.60000000 62.133022308 2.4692313671 336.56829834
 563.70000000 62.191318512 2.4692568779 336.61062622
 563.80000000 62.249610901 2.4692826271 336.65295410
 563.90000000 62.307903290 2.4693081379 336.69528198
 564.00000000 62.366195679 2.4693338871 336.73760986
 564.10000000 62.424488068 2.4693593979 336.77993774
 564.20000000 62.482780457 2.4693851471 336.82226563
 564.30000000 62.541072845 2.4694106579 336.86456299
 564.40000000 62.599369049 2.4694364071 336.90689087
 564.50000000 62.657661438 2.4694619179 336.94921875
 564.60000000 62.715953827 2.4694876671 336.99154663
 564.70000000 62.774246216 2.4695131779 337.03387451
 564.80000000 62.832538605 2.4695389271 337.07620239
 564.90000000 62.890834808 2.4695644379 337.11853027
 565.00000000 62.949127197 2.4695901871 337.16085815
 565.10000000 63.007419586 2.4696156979 337.20315552
 565.20000000 63.065711975 2.4696414471 337.24548340
 565.30000000 63.124004364 2.4696669579 337.28781128
 565.40000000 63.182296753 2.4611990452 337.33013916
 565.50000000 63.240592957 2.4512948990 337.37246704
 565.60000000 63.298885345 2.4400200844 337.41479492
 565.70000000 63.357177734 2.4267539978 337.45712280
 565.80000000 63.415470123 2.4100439548 337.49945068
 565.90000000 63.797386169 2.3889079094 337.54177856
 566.00000000 64.133575439 2.3629779816 337.58407593
 566.10000000 64.610588074 2.3317890167 337.62640381
 566.20000000 65.077842712 2.2960648537 337.66873169
 566.30000000 65.483230591 2.2580189705 337.71105957
 566.40000000 65.912086487 2.2202439308 337.75338745
 566.50000000 66.306495667 2.1865379810 337.79571533
 566.60000000 66.604286194 2.1592991352 337.83804321
 566.70000000 66.633522034 2.1402328014 337.88037109
 566.80000000 66.662765503 2.1307170391 337.92269897
 566.90000000 66.692001343 2.1275758743 337.96499634
 567.00000000 66.721244812 2.1278700829 338.00732422
 567.10000000 66.750480652 2.1281621456 338.04965210
 567.20000000 66.779724121 2.1262271404 338.09197998
 567.30000000 66.808959961 2.1220037937 338.13430786
 567.40000000 66.838203430 2.1167318821 338.17663574
 567.50000000 66.867439270 2.1125729084 338.21896362
 567.60000000 66.896682739 2.1113491058 338.26129150
 567.70000000 66.925918579 2.1150457859 338.30358887
 567.80000000 66.955162048 2.1248240471 338.34591675
 567.90000000 66.984397888 2.1395840645 338.38824463
 568.00000000 67.013641357 2.1571650505 338.43057251
 568.10000000 67.042877197 2.1727490425 338.47290039
 568.20000000 67.072120667 2.1807498932 338.51522827
 568.30000000 67.101356506 2.1757199764 338.55755615
 568.40000000 67.130599976 2.1497008801 338.59988403
 568.50000000 67.159835815 2.1064829826 338.64221191
 568.60000000 67.189079285 2.0511140823 338.68450928
 568.70000000 67.218315125 1.9920560122 338.72683716
 568.80000000 67.247558594 1.9742804766 338.76916504
 568.90000000 67.276794434 1.9565048218 338.81149292
 569.00000000 67.306037903 1.9387292862 338.85382080
 569.10000000 67.335273743 1.9387629032 338.89614868
 569.20000000 67.364517212 1.9387966394 338.93847656
 569.30000000 67.393753052 1.9388302565 338.98080444
 569.40000000 67.422996521 1.9388639927 339.02310181
 569.50000000 67.452232361 1.9388976097 339.06542969
 569.60000000 67.481475830 1.9389313459 339.10775757
 569.70000000 67.510711670 1.9389649630 339.15008545
 569.80000000 67.539955139 1.9389986992 339.19241333
 569.90000000 67.569190979 1.9390323162 339.23474121
 570.00000000 67.598434448 1.9390660524 339.27706909
 570.10000000 67.627670288 1.9390996695 339.31939697
 570.20000000 67.656913757 1.9391334057 339.36172485
 570.30000000 67.686149597 1.9594621658 339.40402222
 570.40000000 67.715393066 1.9797910452 339.44635010
 570.50000000 67.744628906 2.0210659504 339.48867798
 570.60000000 67.773872375 2.0546088219 339.53100586
 570.70000000 67.803108215 2.0757548809 339.57333374
 570.80000000 67.832351685 2.0851430893 339.61566162
 570.90000000 67.861587524 2.0843999386 339.65798950
 571.00000000 67.426025391 2.0757610798 339.70031738
 571.10000000 67.418205261 2.0610229969 339.74264526
 571.20000000 67.410377502 2.0406739712 339.78494263
 571.30000000 67.402557373 2.0169229507 339.82727051
 571.40000000 67.779289246 1.9946559668 339.86959839
 571.50000000 67.781120300 1.9781240225 339.91192627
 571.60000000 67.782943726 1.9719449282 339.95425415
 571.70000000 67.784774780 1.9742519855 339.99658203
 571.80000000 67.786605835 1.9824980497 340.03890991
 571.90000000 67.788436890 1.9933969975 340.08123779
 572.00000000 67.790267944 2.0042309761 340.12353516
 572.10000000 67.792091370 2.0146970749 340.16586304
 572.20000000 67.793922424 2.0252418518 340.20819092
 572.30000000 67.661026001 2.0351879597 340.25051880
 572.40000000 67.639686584 2.0422899723 340.29284668
 572.50000000 67.623535156 2.0431208611 340.33517456
 572.60000000 67.650665283 2.0353350639 340.37750244
 572.70000000 67.764358521 2.0203180313 340.41983032
 572.80000000 67.741317749 2.0001919270 340.46215820
 572.90000000 67.718269348 1.9780179262 340.50445557
 573.00000000 67.695228577 1.9771617651 340.54678345
 573.10000000 67.672187805 1.9763054848 340.58911133
 573.20000000 67.649139404 1.9754493237 340.63143921
 573.30000000 67.626098633 1.9745930433 340.67376709
 573.40000000 67.603057861 1.9737368822 340.71609497
 573.50000000 67.580017090 1.9728806019 340.75842285
 573.60000000 67.556968689 1.9720244408 340.80075073
 573.70000000 67.533927917 1.9711681604 340.84307861
 573.80000000 67.488311768 1.9703119993 340.88537598
 573.90000000 67.442687988 1.9872061014 340.92770386
 574.00000000 67.397071838 2.0032970905 340.97003174
 574.10000000 67.351455688 2.0210819244 341.01235962
 574.20000000 67.305831909 2.0425069332 341.05468750
 574.30000000 67.260215759 2.0657289028 341.09701538
 574.40000000 67.284934998 2.0864360332 341.13934326
 574.50000000 67.249366760 2.0852136612 341.18167114
 574.60000000 67.213798523 2.0839915276 341.22396851
 574.70000000 67.178222656 2.0827691555 341.26629639
 574.80000000 67.142654419 2.0815470219 341.30862427
 574.90000000 67.107086182 2.0721478462 341.35095215
 575.00000000 67.071517944 2.0666749477 341.39328003
 575.10000000 67.035949707 2.0657029152 341.43560791
 575.20000000 67.000373840 2.0673868656 341.47793579
 575.30000000 66.964805603 2.0703859329 341.52026367
 575.40000000 67.005538940 2.0742709637 341.56259155
 575.50000000 67.046272278 2.0789120197 341.60488892
 575.60000000 67.087005615 2.0836000443 341.64721680
 575.70000000 67.127738953 2.0863149166 341.68954468
 575.80000000 67.168472290 2.0841298103 341.73187256
 575.90000000 67.137687683 2.0763788223 341.77420044
 576.00000000 67.432731628 2.0643889904 341.81652832
 576.10000000 67.384010315 2.0519950390 341.85885620
 576.20000000 67.335296631 2.0430979729 341.90118408
 576.30000000 67.286582947 2.0398011208 341.94348145
 576.40000000 67.237861633 2.0436329842 341.98580933
