# LAS format log file from PETREL
# Project units are specified as depth units
#==================================================================
~Version information
VERS.   2.0:
WRAP.   NO:
#==================================================================
~Well
STRT .m      350.00000000 :
STOP .m      2957.0000000 :
STEP .m     0.10000000 :
NULL .        -999.250000 :
COMP.           : COMPANY
WELL.  P-132   : WELL
FLD.            : FIELD
LOC.            : LOCATION
SRVC.           : SERVICE COMPANY
DATE.  2014-09-16 16:49:33   : Log Export Date {yyyy-MM-dd HH:mm:ss}
PROV.           : PROVINCE
UWI.      : UNIQUE WELL ID
API.            : API NUMBER
#==================================================================
~Curve
DEPT .m                   : DEPTH
Sonic_despiked .us/ft     : Sonic_despiked
RHOB_despiked .g/cm3      : RHOB_despiked
two-waytime .ms           : two-way time
~Parameter
#==================================================================
~Ascii
# ...
 1588.2000000 64.778190613 2.6505270004 762.82623291
 1588.3000000 64.784423828 2.6486229897 762.86749268
 1588.4000000 64.790664673 2.6468849182 762.90875244
 1588.5000000 64.796897888 2.6445791721 762.95001221
 1588.6000000 64.803131104 2.6419317722 762.99127197
 1588.7000000 64.809371948 2.6390919685 763.03253174
 1588.8000000 64.815605164 2.6357529163 763.07385254
 1588.9000000 64.821838379 2.6359467506 763.11511230
 1589.0000000 64.828079224 2.6361408234 763.15637207
 1589.1000000 64.834312439 2.6363346577 763.19763184
 1589.2000000 64.317070007 2.6365287304 763.23889160
 1589.3000000 64.293670654 2.6367225647 763.28015137
 1589.4000000 64.270271301 2.6369166374 763.32141113
 1589.5000000 64.246879578 2.6371104717 763.36267090
 1589.6000000 64.223480225 2.6373043060 763.40393066
 1589.7000000 64.200080872 2.6374983788 763.44519043
 1589.8000000 64.176689148 2.6376922131 763.48645020
 1589.9000000 64.153289795 2.6378862858 763.52770996
 1590.0000000 64.129890442 2.6380801201 763.56896973
 1590.1000000 64.106491089 2.6449899673 763.61022949
 1590.2000000 64.083099365 2.6498880386 763.65155029
 1590.3000000 64.059700012 2.6525309086 763.69281006
 1590.4000000 64.036300659 2.6528990269 763.73406982
 1590.5000000 64.012901306 2.6515500546 763.77532959
 1590.6000000 63.989505768 2.6488721371 763.81658936
 1590.7000000 63.966110229 2.6456329823 763.85784912
 1590.8000000 63.942710876 2.6431088448 763.89910889
 1590.9000000 63.919311523 2.6422758102 763.94036865
 1591.0000000 63.895915985 2.6438889503 763.98162842
 1591.1000000 63.872520447 2.6470558643 764.02288818
 1591.2000000 63.849121094 2.6505568027 764.06414795
 1591.3000000 63.825725555 2.6531670094 764.10540771
 1591.4000000 63.802326202 2.6545939445 764.14666748
 1591.5000000 63.778930664 2.6554059982 764.18792725
 1591.6000000 63.755531311 2.6562800407 764.22924805
 1591.7000000 63.732131958 2.6574809551 764.27050781
 1591.8000000 63.708736420 2.6586871147 764.31176758
 1591.9000000 63.685337067 2.6594109535 764.35302734
 1592.0000000 63.661941528 2.6591608524 764.39428711
 1592.1000000 63.638545990 2.6578109264 764.43554688
 1592.2000000 63.615146637 2.6553149223 764.47680664
 1592.3000000 63.591751099 2.6518278122 764.51806641
 1592.4000000 63.568351746 2.6486279964 764.55932617
 1592.5000000 63.544952393 2.6468038559 764.60058594
 1592.6000000 63.521556854 2.6472270489 764.64184570
 1592.7000000 63.498157501 2.6487729549 764.68310547
 1592.8000000 63.474761963 2.6495690346 764.72436523
 1592.9000000 63.451362610 2.6474361420 764.76562500
 1593.0000000 63.427967072 2.6421508789 764.80694580
 1593.1000000 63.716003418 2.6354889870 764.84820557
 1593.2000000 64.033912659 2.6301250458 764.88946533
 1593.3000000 63.993946075 2.6283998489 764.93072510
 1593.4000000 63.953979492 2.6304039955 764.97198486
 1593.5000000 63.914012909 2.6351881027 765.01324463
 1593.6000000 63.874046326 2.6410048008 765.05450439
 1593.7000000 63.834079742 2.6464159489 765.09576416
 1593.8000000 63.794109344 2.6510171890 765.13702393
 1593.9000000 63.754142761 2.6549208164 765.17828369
 1594.0000000 63.714176178 2.6582839489 765.21954346
 1594.1000000 63.674209595 2.6609690189 765.26080322
 1594.2000000 63.634243011 2.6622838974 765.30206299
 1594.3000000 63.594276428 2.6617569923 765.34332275
 1594.4000000 63.554309845 2.6590809822 765.38464355
 1594.5000000 63.514343262 2.6540620327 765.42590332
 1594.6000000 63.474376678 2.6472809315 765.46716309
 1594.7000000 63.434410095 2.6393229961 765.50842285
 1594.8000000 63.394443512 2.6304159164 765.54968262
 1594.9000000 63.354473114 2.6300718784 765.59094238
 1595.0000000 63.314506531 2.6297280788 765.63220215
 1595.1000000 63.274539948 2.6293840408 765.67346191
 1595.2000000 63.234573364 2.6290402412 765.71472168
 1595.3000000 63.194606781 2.6286962032 765.75598145
 1595.4000000 63.154640198 2.6283524036 765.79724121
 1595.5000000 63.114673615 2.6280083656 765.83850098
 1595.6000000 63.074707031 2.6276645660 765.87976074
 1595.7000000 63.034740448 2.6273205280 765.92102051
 1595.8000000 62.994773865 2.6269767284 765.96234131
 1595.9000000 62.954803467 2.6266326904 766.00360107
 1596.0000000 62.914836884 2.6262888908 766.04486084
 1596.1000000 62.874870300 2.6259448528 766.08612061
 1596.2000000 62.834903717 2.6256010532 766.12738037
 1596.3000000 62.794937134 2.6252570152 766.16864014
 1596.4000000 62.754970551 2.6249132156 766.20989990
 1596.5000000 62.390121460 2.6245691776 766.25115967
 1596.6000000 62.367748260 2.6336011887 766.29241943
 1596.7000000 62.345375061 2.6424331665 766.33367920
 1596.8000000 62.329025269 2.6507499218 766.37493896
 1596.9000000 62.312675476 2.6578688622 766.41619873
 1597.0000000 62.296325684 2.6631340981 766.45745850
 1597.1000000 62.279975891 2.6660139561 766.49871826
 1597.2000000 62.263626099 2.6672329903 766.54003906
 1597.3000000 62.247276306 2.6673829556 766.58129883
 1597.4000000 62.230926514 2.6670911312 766.62255859
 1597.5000000 62.214576721 2.6670939922 766.66381836
 1597.6000000 62.198226929 2.6679790020 766.70507813
 1597.7000000 62.181873322 2.6705100536 766.74633789
 1597.8000000 62.165523529 2.6750199795 766.78759766
 1597.9000000 62.149173737 2.6748814583 766.82885742
 1598.0000000 62.132823944 2.6747429371 766.87011719
 1598.1000000 62.116474152 2.6746044159 766.91137695
 1598.2000000 62.100124359 2.6744658947 766.95263672
 1598.3000000 62.083774567 2.6743273735 766.99389648
 1598.4000000 62.067424774 2.6741888523 767.03515625
 1598.5000000 62.051074982 2.6740503311 767.07641602
 1598.6000000 62.034725189 2.6739118099 767.11773682
 1598.7000000 62.065208435 2.6737732887 767.15899658
 1598.8000000 62.001804352 2.6736347675 767.20025635
 1598.9000000 61.953342438 2.6734962463 767.24151611
 1599.0000000 61.909454346 2.6733577251 767.28277588
 1599.1000000 61.860988617 2.6732192039 767.32403564
 1599.2000000 61.823192596 2.6730806828 767.36529541
 1599.3000000 61.778388977 2.6729421616 767.40655518
 1599.4000000 61.765304565 2.6728036404 767.44781494
 1599.5000000 61.752223969 2.6726651192 767.48907471
 1599.6000000 61.739139557 2.6639780998 767.53033447
 1599.7000000 61.726058960 2.6570520401 767.57159424
 1599.8000000 61.712974548 2.6514251232 767.61285400
 1599.9000000 61.699890137 2.6468348503 767.65411377
 1600.0000000 61.686809540 2.6430931091 767.69543457
 1600.1000000 61.673725128 2.6398589611 767.73669434
 1600.2000000 61.660640717 2.6369950771 767.77795410
 1600.3000000 61.647560120 2.6345667839 767.81921387
 1600.4000000 61.634475708 2.6325669289 767.86047363
 1600.5000000 61.621395111 2.6309108734 767.90173340
 1600.6000000 61.608310699 2.6292939186 767.94299316
 1600.7000000 61.956695557 2.6273961067 767.98425293
 1600.8000000 61.951160431 2.6251399517 768.02551270
 1600.9000000 61.945625305 2.6252946854 768.06677246
 1601.0000000 61.940090179 2.6254491806 768.10803223
 1601.1000000 61.934558868 2.6256039143 768.14929199
 1601.2000000 61.929023743 2.6257586479 768.19055176
 1601.3000000 61.923488617 2.6259131432 768.23181152
 1601.4000000 61.917953491 2.6260678768 768.27307129
 1601.5000000 61.912418365 2.6262223721 768.31439209
 1601.6000000 61.906883240 2.6263771057 768.35565186
 1601.7000000 61.901351929 2.6265318394 768.39691162
 1601.8000000 61.895816803 2.6266863346 768.43817139
 1601.9000000 61.890281677 2.6268410683 768.47943115
 1602.0000000 61.884746552 2.6352460384 768.52069092
 1602.1000000 61.879211426 2.6431260109 768.56195068
 1602.2000000 61.873676300 2.6484918594 768.60321045
 1602.3000000 61.868144989 2.6511878967 768.64447021
 1602.4000000 61.862609863 2.6521089077 768.68572998
 1602.5000000 61.857074738 2.6522481441 768.72698975
 1602.6000000 61.851539612 2.6522071362 768.76824951
 1602.7000000 61.698223114 2.6519408226 768.80950928
 1602.8000000 61.470844269 2.6511919498 768.85076904
 1602.9000000 61.484016418 2.6498670578 768.89208984
 1603.0000000 61.497184753 2.6482100487 768.93334961
 1603.1000000 61.510356903 2.6465859413 768.97460938
 1603.2000000 61.523525238 2.6455860138 769.01586914
