# LAS format log file from PETREL
# Project units are specified as depth units
#==================================================================
~Version information
VERS.   2.0:
WRAP.   NO:
#==================================================================
~Well
STRT .m      350.00000000 :
STOP .m      2957.0000000 :
STEP .m     0.10000000 :
NULL .        -999.250000 :
COMP.           : COMPANY
WELL.  P-132   : WELL
FLD.            : FIELD
LOC.            : LOCATION
SRVC.           : SERVICE COMPANY
DATE.  2014-09-16 16:49:33   : Log Export Date {yyyy-MM-dd HH:mm:ss}
PROV.           : PROVINCE
UWI.      : UNIQUE WELL ID
API.            : API NUMBER
#==================================================================
~Curve
DEPT .m                   : DEPTH
Sonic_despiked .us/ft     : Sonic_despiked
RHOB_despiked .g/cm3      : RHOB_despiked
two-waytime .ms           : two-way time
~Parameter
#==================================================================
~Ascii
# ...
 1920.4000000 70.875236511 2.6815748215 902.68536377
 1920.5000000 70.864730835 2.6813476086 902.73077393
 1920.6000000 70.854217529 2.6811206341 902.77618408
 1920.7000000 70.843711853 2.6808936596 902.82165527
 1920.8000000 70.833206177 2.6806664467 902.86706543
 1920.9000000 70.784202576 2.6804394722 902.91247559
 1921.0000000 70.735198975 2.6802124977 902.95794678
 1921.1000000 70.686195374 2.6799852848 903.00335693
 1921.2000000 70.637191772 2.6797583103 903.04876709
 1921.3000000 70.588188171 2.6795313358 903.09423828
 1921.4000000 70.539184570 2.6793041229 903.13964844
 1921.5000000 70.490180969 2.6790771484 903.18511963
 1921.6000000 70.482627869 2.6788501740 903.23052979
 1921.7000000 70.475082397 2.6786229610 903.27593994
 1921.8000000 70.467529297 2.6783959866 903.32141113
 1921.9000000 70.459983826 2.6867740154 903.36682129
 1922.0000000 70.452430725 2.6877210140 903.41223145
 1922.1000000 70.444885254 2.6907670498 903.45770264
 1922.2000000 70.437332153 2.6952118874 903.50311279
 1922.3000000 70.429786682 2.6985719204 903.54852295
 1922.4000000 70.422233582 2.6993680000 903.59399414
 1922.5000000 70.414688110 2.6986398697 903.63940430
 1922.6000000 70.407135010 2.6976258755 903.68481445
 1922.7000000 70.399589539 2.6972839832 903.73028564
 1922.8000000 70.392036438 2.6973888874 903.77569580
 1922.9000000 70.926353455 2.6937370300 903.82116699
 1923.0000000 70.971275330 2.6859478951 903.86657715
 1923.1000000 71.016189575 2.6804308891 903.91198730
 1923.2000000 71.061111450 2.6776058674 903.95745850
 1923.3000000 70.947975159 2.6789569855 904.00286865
 1923.4000000 70.834831238 2.6856589317 904.04827881
 1923.5000000 70.721694946 2.6969139576 904.09375000
 1923.6000000 70.608558655 2.6974897385 904.13916016
 1923.7000000 70.495414734 2.6980655193 904.18457031
 1923.8000000 70.382278442 2.6986413002 904.23004150
 1923.9000000 71.016799927 2.6992173195 904.27545166
 1924.0000000 71.010467529 2.6997931004 904.32086182
 1924.1000000 71.004142761 2.7003688812 904.36633301
 1924.2000000 70.997810364 2.6899149418 904.41174316
 1924.3000000 70.991477966 2.6828448772 904.45721436
 1924.4000000 70.985153198 2.6783711910 904.50262451
 1924.5000000 70.978820801 2.6783602238 904.54803467
 1924.6000000 70.972488403 2.6783492565 904.59350586
 1924.7000000 70.966156006 2.6783380508 904.63891602
 1924.8000000 70.959831238 2.6783270836 904.68432617
 1924.9000000 70.953498840 2.6783161163 904.72979736
 1925.0000000 70.947166443 2.6783051491 904.77520752
 1925.1000000 70.940841675 2.6782939434 904.82061768
 1925.2000000 70.934509277 2.6782829762 904.86608887
 1925.3000000 70.928176880 2.6782720089 904.91149902
 1925.4000000 70.921844482 2.6841259003 904.95690918
 1925.5000000 70.915519714 2.6909890175 905.00238037
 1925.6000000 70.909187317 2.6972930431 905.04779053
 1925.7000000 70.902854919 2.7018392086 905.09320068
 1925.8000000 70.896530151 2.7041559219 905.13867188
 1925.9000000 70.890197754 2.7042250633 905.18408203
 1926.0000000 70.883865356 2.7032899857 905.22955322
 1926.1000000 70.877540588 2.7024559975 905.27496338
 1926.2000000 70.871208191 2.7028100491 905.32037354
 1926.3000000 70.864875793 2.7044870853 905.36584473
 1926.4000000 70.858543396 2.7067189217 905.41125488
 1926.5000000 70.852218628 2.7082428932 905.45666504
 1926.6000000 70.845886230 2.7080161572 905.50213623
 1926.7000000 71.103439331 2.7060639858 905.54754639
 1926.8000000 71.352157593 2.7029049397 905.59295654
 1926.9000000 71.549057007 2.6994760036 905.63842773
 1927.0000000 71.721572876 2.6966550350 905.68383789
 1927.1000000 71.874885559 2.6950569153 905.72924805
 1927.2000000 71.900512695 2.6953401566 905.77471924
 1927.3000000 71.926139832 2.6972060204 905.82012939
 1927.4000000 71.951766968 2.7001600266 905.86560059
 1927.5000000 71.977394104 2.7031021118 905.91101074
 1927.6000000 72.003021240 2.7046720982 905.95642090
 1927.7000000 72.028648376 2.7039828300 906.00189209
 1927.8000000 72.054275513 2.7005271912 906.04730225
 1927.9000000 72.079902649 2.6952660084 906.09271240
 1928.0000000 72.105529785 2.6895799637 906.13818359
 1928.1000000 72.063186646 2.6849308014 906.18359375
 1928.2000000 72.020851135 2.6849842072 906.22900391
 1928.3000000 71.978515625 2.6850376129 906.27447510
 1928.4000000 71.164093018 2.6850910187 906.31988525
 1928.5000000 71.151229858 2.6895079613 906.36529541
 1928.6000000 71.138366699 2.6943609715 906.41076660
 1928.7000000 71.125511169 2.6988558769 906.45617676
 1928.8000000 71.112648010 2.7038960457 906.50164795
 1928.9000000 71.099784851 2.7123570442 906.54705811
 1929.0000000 71.902931213 2.7118129730 906.59246826
 1929.1000000 71.982704163 2.7112691402 906.63793945
 1929.2000000 72.062469482 2.7032949924 906.68334961
 1929.3000000 72.067131042 2.6986799240 906.72875977
 1929.4000000 72.071792603 2.6994230747 906.77423096
 1929.5000000 72.076454163 2.7055568695 906.81964111
 1929.6000000 72.081115723 2.7059965134 906.86505127
 1929.7000000 72.085777283 2.7064363956 906.91052246
 1929.8000000 72.090438843 2.7068762779 906.95593262
 1929.9000000 72.095100403 2.7073159218 907.00134277
 1930.0000000 72.099761963 2.7077555656 907.04681396
 1930.1000000 72.104423523 2.7081954479 907.09222412
 1930.2000000 72.109085083 2.7086353302 907.13769531
 1930.3000000 72.113746643 2.7090749741 907.18310547
 1930.4000000 72.118408203 2.7027418613 907.22851563
 1930.5000000 72.123069763 2.6981101036 907.27398682
 1930.6000000 72.127731323 2.6937649250 907.31939697
 1930.7000000 72.132392883 2.6898529530 907.36480713
 1930.8000000 72.137054443 2.6896274090 907.41027832
 1930.9000000 72.141716003 2.6894016266 907.45568848
 1931.0000000 72.146377563 2.6891760826 907.50109863
 1931.1000000 72.151039124 2.6889503002 907.54656982
 1931.2000000 72.155700684 2.6887245178 907.59197998
 1931.3000000 72.160362244 2.6884989738 907.63739014
 1931.4000000 72.165023804 2.6929249763 907.68286133
 1931.5000000 72.169685364 2.6978390217 907.72827148
 1931.6000000 72.174346924 2.7012639046 907.77368164
 1931.7000000 72.179008484 2.7011659145 907.81915283
 1931.8000000 72.183670044 2.6978411674 907.86456299
 1931.9000000 72.188331604 2.6925549507 907.91003418
 1932.0000000 72.192993164 2.6920447350 907.95544434
 1932.1000000 72.197654724 2.6915345192 908.00085449
 1932.2000000 72.202316284 2.6910243034 908.04632568
 1932.3000000 72.206977844 2.6905143261 908.09173584
 1932.4000000 72.211639404 2.6900041103 908.13714600
 1932.5000000 72.216300964 2.6894938946 908.18261719
 1932.6000000 72.220962524 2.6969690323 908.22802734
 1932.7000000 72.225624084 2.7057828903 908.27343750
 1932.8000000 72.230285645 2.7144069672 908.31890869
 1932.9000000 71.442680359 2.7143487930 908.36431885
 1933.0000000 71.438323975 2.7142903805 908.40972900
 1933.1000000 71.433975220 2.7142322063 908.45520020
 1933.2000000 71.429618835 2.7141737938 908.50061035
 1933.3000000 71.425262451 2.7141156197 908.54608154
 1933.4000000 71.420906067 2.7140574455 908.59149170
 1933.5000000 71.416557312 2.7139990330 908.63690186
 1933.6000000 71.412200928 2.7139408588 908.68237305
 1933.7000000 71.407844543 2.7074570656 908.72778320
 1933.8000000 71.403495789 2.7017591000 908.77319336
 1933.9000000 71.399139404 2.6967020035 908.81866455
 1934.0000000 71.394783020 2.6917150021 908.86407471
 1934.1000000 71.390426636 2.6917150021 908.90948486
 1934.2000000 71.386077881 2.6917150021 908.95495605
 1934.3000000 71.381721497 2.6917150021 909.00036621
 1934.4000000 71.424217224 2.6917150021 909.04577637
 1934.5000000 71.422981262 2.6917150021 909.09124756
 1934.6000000 71.421752930 2.6917150021 909.13665771
 1934.7000000 71.420524597 2.7021210194 909.18212891
 1934.8000000 71.419288635 2.7129681110 909.22753906
 1934.9000000 71.418060303 2.7127351761 909.27294922
 1935.0000000 71.416831970 2.7125020027 909.31842041
 1935.1000000 71.415596008 2.7122690678 909.36383057
 1935.2000000 71.414367676 2.7120358944 909.40924072
 1935.3000000 71.413139343 2.7118029594 909.45471191
 1935.4000000 71.411903381 2.7024178505 909.50012207
