# LAS format log file from PETREL
# Project units are specified as depth units
#==================================================================
~Version information
VERS.   2.0:
WRAP.   NO:
#==================================================================
~Well
STRT .m      350.00000000 :
STOP .m      2957.0000000 :
STEP .m     0.10000000 :
NULL .        -999.250000 :
COMP.           : COMPANY
WELL.  P-132   : WELL
FLD.            : FIELD
LOC.            : LOCATION
SRVC.           : SERVICE COMPANY
DATE.  2014-09-16 16:49:33   : Log Export Date {yyyy-MM-dd HH:mm:ss}
PROV.           : PROVINCE
UWI.      : UNIQUE WELL ID
API.            : API NUMBER
#==================================================================
~Curve
DEPT .m                   : DEPTH
Sonic_despiked .us/ft     : Sonic_despiked
RHOB_despiked .g/cm3      : RHOB_despiked
two-waytime .ms           : two-way time
~Parameter
#==================================================================
~Ascii
# ...
 2101.6000000 65.869110107 2.7011578083 983.32977295
 2101.7000000 65.832229614 2.7004928589 983.37347412
 2101.8000000 65.795349121 2.7031509876 983.41717529
 2101.9000000 65.758468628 2.7051169872 983.46087646
 2102.0000000 65.863777161 2.7062389851 983.50457764
 2102.1000000 65.969085693 2.7074837685 983.54827881
 2102.2000000 66.074386597 2.7094430923 983.59197998
 2102.3000000 66.179695129 2.7121298313 983.63568115
 2102.4000000 66.285003662 2.7147181034 983.67938232
 2102.5000000 66.390312195 2.7165539265 983.72308350
 2102.6000000 66.628059387 2.7174508572 983.76678467
 2102.7000000 66.802711487 2.7178092003 983.81048584
 2102.8000000 66.887748718 2.7179579735 983.85418701
 2102.9000000 66.953887939 2.7180480957 983.89788818
 2103.0000000 67.020942688 2.7185740471 983.94158936
 2103.1000000 67.097755432 2.7203369141 983.98529053
 2103.2000000 67.164512634 2.7239718437 984.02899170
 2103.3000000 67.248939514 2.7290959358 984.07269287
 2103.4000000 67.252082825 2.7294902802 984.11639404
 2103.5000000 67.255226135 2.7298846245 984.16009521
 2103.6000000 67.258369446 2.7302787304 984.20379639
 2103.7000000 67.261505127 2.7306730747 984.24749756
 2103.8000000 67.264648438 2.7261722088 984.29119873
 2103.9000000 67.267791748 2.7220458984 984.33489990
 2104.0000000 67.270935059 2.7184088230 984.37860107
 2104.1000000 67.274078369 2.7147829533 984.42230225
 2104.2000000 67.277221680 2.7106509209 984.46600342
 2104.3000000 67.280364990 2.7060449123 984.50970459
 2104.4000000 67.283500671 2.7016649246 984.55340576
 2104.5000000 67.286643982 2.6986720562 984.59710693
 2104.6000000 67.289787292 2.6981830597 984.64080811
 2104.7000000 67.292930603 2.6999299526 984.68450928
 2104.8000000 67.296073914 2.7028560638 984.72821045
 2104.9000000 67.299217224 2.7049779892 984.77191162
 2105.0000000 67.302360535 2.7050659657 984.81561279
 2105.1000000 67.305496216 2.7030401230 984.85931396
 2105.2000000 67.308639526 2.6995038986 984.90301514
 2105.3000000 67.311782837 2.6954488754 984.94671631
 2105.4000000 67.314926147 2.6910099983 984.99041748
 2105.5000000 67.318069458 2.6911909580 985.03411865
 2105.6000000 67.321212769 2.6913719177 985.07781982
 2105.7000000 67.324356079 2.6915528774 985.12152100
 2105.8000000 67.327491760 2.6917338371 985.16522217
 2105.9000000 67.330635071 2.7082118988 985.20892334
 2106.0000000 67.333778381 2.7091813087 985.25262451
 2106.1000000 67.336921692 2.7101507187 985.29632568
 2106.2000000 67.340065002 2.7111198902 985.34002686
 2106.3000000 67.343208313 2.7120893002 985.38372803
 2106.4000000 67.346351624 2.7130587101 985.42742920
 2106.5000000 67.349487305 2.7140281200 985.47113037
 2106.6000000 67.352630615 2.6927599907 985.51483154
 2106.7000000 67.355773926 2.6927266121 985.55853271
 2106.8000000 67.358917236 2.6926934719 985.60223389
 2106.9000000 67.362060547 2.6926603317 985.64593506
 2107.0000000 67.365203857 2.6926269531 985.68963623
 2107.1000000 67.368347168 2.6925935745 985.73333740
 2107.2000000 67.371482849 2.6925604343 985.77703857
 2107.3000000 67.374626160 2.6925272942 985.82073975
 2107.4000000 67.377769470 2.6924939156 985.86444092
 2107.5000000 67.380912781 2.7026178837 985.90814209
 2107.6000000 67.131889343 2.7087700367 985.95184326
 2107.7000000 67.137786865 2.7093789577 985.99554443
 2107.8000000 67.143684387 2.7046360970 986.03924561
 2107.9000000 67.149581909 2.6974298954 986.08294678
 2108.0000000 67.155479431 2.6906278133 986.12664795
 2108.1000000 67.161376953 2.6872620583 986.17034912
 2108.2000000 67.167274475 2.6879589558 986.21405029
 2108.3000000 67.173171997 2.6924159527 986.25775146
 2108.4000000 67.179069519 2.6996359825 986.30145264
 2108.5000000 67.184967041 2.7072889805 986.34515381
 2108.6000000 67.190864563 2.7138121128 986.38885498
 2108.7000000 67.196762085 2.7178621292 986.43255615
 2108.8000000 67.202659607 2.7194280624 986.47625732
 2108.9000000 67.208557129 2.7190520763 986.51995850
 2109.0000000 67.214454651 2.7173199654 986.56365967
 2109.1000000 67.220352173 2.7150809765 986.60736084
 2109.2000000 67.226249695 2.7130219936 986.65106201
 2109.3000000 67.232147217 2.7115790844 986.69476318
 2109.4000000 67.238044739 2.7108120918 986.73846436
 2109.5000000 67.243942261 2.7102839947 986.78216553
 2109.6000000 67.249839783 2.7095620632 986.82586670
 2109.7000000 67.255737305 2.7083711624 986.86956787
 2109.8000000 67.261642456 2.7069509029 986.91326904
 2109.9000000 67.267539978 2.7055859566 986.95697021
 2110.0000000 67.273437500 2.7044007778 987.00067139
 2110.1000000 67.279335022 2.7030930519 987.04437256
 2110.2000000 67.285232544 2.7012040615 987.08807373
 2110.3000000 67.291130066 2.6980481148 987.13177490
 2110.4000000 67.297027588 2.6933090687 987.17547607
 2110.5000000 67.302925110 2.6870691776 987.21917725
 2110.6000000 67.308822632 2.6874866486 987.26287842
 2110.7000000 67.314720154 2.6879043579 987.30657959
 2110.8000000 67.320617676 2.6883218288 987.35028076
 2110.9000000 67.326515198 2.6887395382 987.39398193
 2111.0000000 67.332412720 2.6891570091 987.43768311
 2111.1000000 67.338310242 2.7065491676 987.48138428
 2111.2000000 67.344207764 2.7072470188 987.52508545
 2111.3000000 67.350105286 2.7079451084 987.56878662
 2111.4000000 67.356002808 2.7086431980 987.61248779
 2111.5000000 67.361900330 2.7093410492 987.65618896
 2111.6000000 67.367797852 2.7100391388 987.69989014
 2111.7000000 67.373695374 2.7107369900 987.74359131
 2111.8000000 67.379592896 2.6996200085 987.78729248
 2111.9000000 67.385490417 2.6925969124 987.83099365
 2112.0000000 67.807327271 2.6928448677 987.87469482
 2112.1000000 67.828880310 2.6930930614 987.91839600
 2112.2000000 67.850440979 2.6933410168 987.96209717
 2112.3000000 67.871994019 2.6935892105 988.00579834
 2112.4000000 67.893554688 2.7003159523 988.04949951
 2112.5000000 67.915107727 2.7083649635 988.09320068
 2112.6000000 67.936668396 2.7149350643 988.13690186
 2112.7000000 67.958221436 2.7171158791 988.18060303
 2112.8000000 67.979782104 2.7127108574 988.22430420
 2112.9000000 68.001335144 2.7008631229 988.26800537
 2113.0000000 68.022888184 2.7019257545 988.31170654
 2113.1000000 68.044448853 2.7029886246 988.35540771
 2113.2000000 68.066001892 2.7040512562 988.39910889
 2113.3000000 68.087562561 2.7051138878 988.44281006
 2113.4000000 68.109115601 2.7061765194 988.48651123
 2113.5000000 68.130676270 2.7072393894 988.53021240
 2113.6000000 68.152229309 2.7083020210 988.57391357
 2113.7000000 68.173789978 2.7155299187 988.61761475
 2113.8000000 68.195343018 2.7173633575 988.66131592
 2113.9000000 67.972839355 2.7191965580 988.70501709
 2114.0000000 67.844215393 2.7210299969 988.74871826
 2114.1000000 67.779594421 2.7082140446 988.79241943
 2114.2000000 67.719245911 2.6995129585 988.83612061
 2114.3000000 67.692420959 2.6970381737 988.87982178
 2114.4000000 67.693946838 2.6996798515 988.92352295
 2114.5000000 67.699127197 2.7040538788 988.96722412
 2114.6000000 67.654624939 2.7068290710 989.01092529
 2114.7000000 67.652420044 2.7072420120 989.05462646
 2114.8000000 67.650207520 2.7059719563 989.09832764
 2114.9000000 67.647994995 2.7044529915 989.14202881
 2115.0000000 67.645790100 2.7031188011 989.18572998
 2115.1000000 67.854576111 2.7020199299 989.22943115
 2115.2000000 68.061843872 2.7014031410 989.27313232
 2115.3000000 68.254776001 2.7018067837 989.31683350
 2115.4000000 68.242057800 2.7037639618 989.36053467
 2115.5000000 68.229339600 2.7070438862 989.40423584
 2115.6000000 68.216621399 2.7108950615 989.44793701
 2115.7000000 68.203903198 2.7146689892 989.49163818
 2115.8000000 68.191192627 2.7176260948 989.53533936
 2115.9000000 68.178474426 2.7191379070 989.57904053
 2116.0000000 68.165756226 2.7186841965 989.62274170
 2116.1000000 68.153038025 2.7164881229 989.66644287
 2116.2000000 68.140319824 2.7144939899 989.71014404
 2116.3000000 68.127601624 2.7143878937 989.75384521
 2116.4000000 68.114883423 2.7170901299 989.79754639
 2116.5000000 68.102165222 2.7206749916 989.84124756
 2116.6000000 68.089447021 2.7227759361 989.88494873
