# LAS format log file from PETREL
# Project units are specified as depth units
#==================================================================
~Version information
VERS.   2.0:
WRAP.   NO:
#==================================================================
~Well
STRT .m      350.00000000 :
STOP .m      2957.0000000 :
STEP .m     0.10000000 :
NULL .        -999.250000 :
COMP.           : COMPANY
WELL.  P-132   : WELL
FLD.            : FIELD
LOC.            : LOCATION
SRVC.           : SERVICE COMPANY
DATE.  2014-09-16 16:49:33   : Log Export Date {yyyy-MM-dd HH:mm:ss}
PROV.           : PROVINCE
UWI.      : UNIQUE WELL ID
API.            : API NUMBER
#==================================================================
~Curve
DEPT .m                   : DEPTH
Sonic_despiked .us/ft     : Sonic_despiked
RHOB_despiked .g/cm3      : RHOB_despiked
two-waytime .ms           : two-way time
~Parameter
#==================================================================
~Ascii
# ...
 1422.1000000 63.402496338 2.6406898499 693.24499512
 1422.2000000 63.421783447 2.6442198753 693.28662109
 1422.3000000 63.441070557 2.6443130970 693.32824707
 1422.4000000 63.535270691 2.6400711536 693.36987305
 1422.5000000 63.629470825 2.6325669289 693.41156006
 1422.6000000 63.723674774 2.6247560978 693.45318604
 1422.7000000 63.817874908 2.6195640564 693.49481201
 1422.8000000 63.912075043 2.6197764874 693.53643799
 1422.9000000 64.006278992 2.6199889183 693.57806396
 1423.0000000 63.983669281 2.6237142086 693.61968994
 1423.1000000 63.961059570 2.6277060509 693.66131592
 1423.2000000 63.938449860 2.6304230690 693.70294189
 1423.3000000 63.915836334 2.6301918030 693.74456787
 1423.4000000 63.893226624 2.6261608601 693.78619385
 1423.5000000 63.870616913 2.6263773441 693.82781982
 1423.6000000 63.848007202 2.6265938282 693.86944580
 1423.7000000 63.825397491 2.6268103123 693.91107178
 1423.8000000 63.802787781 2.6270270348 693.95275879
 1423.9000000 63.780174255 2.6272435188 693.99438477
 1424.0000000 63.757564545 2.6274600029 694.03601074
 1424.1000000 63.734954834 2.6276764870 694.07763672
 1424.2000000 63.712345123 2.6278929710 694.11926270
 1424.3000000 63.262153625 2.6337990761 694.16088867
 1424.4000000 63.268135071 2.6391038895 694.20251465
 1424.5000000 63.274116516 2.6449790001 694.24414063
 1424.6000000 63.280097961 2.6510601044 694.28576660
 1424.7000000 63.286083221 2.6556930542 694.32739258
 1424.8000000 63.292064667 2.6568119526 694.36901855
 1424.9000000 63.298046112 2.6539409161 694.41064453
 1425.0000000 63.304027557 2.6483979225 694.45227051
 1425.1000000 63.310009003 2.6416468620 694.49395752
 1425.2000000 63.442596436 2.6353158951 694.53558350
 1425.3000000 63.528854370 2.6306979656 694.57720947
 1425.4000000 63.577930450 2.6290719509 694.61883545
 1425.5000000 63.647422791 2.6320209503 694.66046143
 1425.6000000 63.673633575 2.6387970448 694.70208740
 1425.7000000 63.656871796 2.6481249332 694.74371338
 1425.8000000 63.633098602 2.6578998566 694.78533936
 1425.9000000 63.645896912 2.6662859917 694.82696533
 1426.0000000 63.703201294 2.6656141281 694.86859131
 1426.1000000 63.966854095 2.6649422646 694.91021729
 1426.2000000 64.289024353 2.6642706394 694.95184326
 1426.3000000 64.674293518 2.6635987759 694.99353027
 1426.4000000 64.671020508 2.6629269123 695.03515625
 1426.5000000 64.667739868 2.6481699944 695.07678223
 1426.6000000 64.664459229 2.6302042007 695.11840820
 1426.7000000 64.661186218 2.6311352253 695.16003418
 1426.8000000 64.657913208 2.6320662498 695.20166016
 1426.9000000 64.654632568 2.6329975128 695.24328613
 1427.0000000 64.651351929 2.6339285374 695.28491211
 1427.1000000 64.648078918 2.6348595619 695.32653809
 1427.2000000 64.644805908 2.6357905865 695.36816406
 1427.3000000 64.641525269 2.6367216110 695.40979004
 1427.4000000 64.638244629 2.6376526356 695.45141602
 1427.5000000 64.634971619 2.6385838985 695.49304199
 1427.6000000 64.631698608 2.6395149231 695.53472900
 1427.7000000 64.628417969 2.6404459476 695.57635498
 1427.8000000 64.625137329 2.6413769722 695.61798096
 1427.9000000 64.621864319 2.6600389481 695.65960693
 1428.0000000 64.618591309 2.6606979370 695.70123291
 1428.1000000 64.615310669 2.6613569260 695.74285889
 1428.2000000 64.612030029 2.6620159149 695.78448486
 1428.3000000 64.608757019 2.6626749039 695.82611084
 1428.4000000 64.247268677 2.6633341312 695.86773682
 1428.5000000 64.198387146 2.6639931202 695.90936279
 1428.6000000 64.149513245 2.6646521091 695.95098877
 1428.7000000 64.100631714 2.6653110981 695.99261475
 1428.8000000 64.051750183 2.6614041328 696.03424072
 1428.9000000 64.002876282 2.6593949795 696.07592773
 1429.0000000 63.953994751 2.6600210667 696.11755371
 1429.1000000 63.955638885 2.6618430614 696.15917969
 1429.2000000 63.957283020 2.6631760597 696.20080566
 1429.3000000 63.958930969 2.6625120640 696.24243164
 1429.4000000 63.960575104 2.6602518559 696.28405762
 1429.5000000 63.962219238 2.6581079960 696.32568359
 1429.6000000 63.963867188 2.6582689285 696.36730957
 1429.7000000 63.965511322 2.6618797779 696.40893555
 1429.8000000 63.967155457 2.6616744995 696.45056152
 1429.9000000 64.016227722 2.6614692211 696.49218750
 1430.0000000 64.061950684 2.6612639427 696.53381348
 1430.1000000 64.131752014 2.6610586643 696.57543945
 1430.2000000 64.279884338 2.6608533859 696.61712646
 1430.3000000 64.434715271 2.6606483459 696.65875244
 1430.4000000 64.547187805 2.6604430676 696.70037842
 1430.5000000 64.557250977 2.6602377892 696.74200439
 1430.6000000 64.546279907 2.6600325108 696.78363037
 1430.7000000 64.592910767 2.6598272324 696.82525635
 1430.8000000 64.478614807 2.6596219540 696.86688232
 1430.9000000 64.321945190 2.6472630501 696.90850830
 1431.0000000 64.319503784 2.6378490925 696.95013428
 1431.1000000 64.373146057 2.6329789162 696.99176025
 1431.2000000 64.478004456 2.6323859692 697.03338623
 1431.3000000 64.729156494 2.6330139637 697.07501221
 1431.4000000 64.695823669 2.6313290596 697.11663818
 1431.5000000 64.662483215 2.6248741150 697.15832520
 1431.6000000 64.629150391 2.6245229244 697.19995117
 1431.7000000 64.595817566 2.6241719723 697.24157715
 1431.8000000 64.562477112 2.6248128414 697.28320313
 1431.9000000 64.529144287 2.6254539490 697.32482910
 1432.0000000 64.495803833 2.6260948181 697.36645508
 1432.1000000 64.462471008 2.6267356873 697.40808105
 1432.2000000 64.429138184 2.6273767948 697.44970703
 1432.3000000 64.395797729 2.6280176640 697.49133301
 1432.4000000 64.362464905 2.6286585331 697.53295898
 1432.5000000 64.329132080 2.6292996407 697.57458496
 1432.6000000 64.295791626 2.6299405098 697.61621094
 1432.7000000 64.262458801 2.6305816174 697.65789795
 1432.8000000 64.229118347 2.6312224865 697.69952393
 1432.9000000 64.195785522 2.6318633556 697.74114990
 1433.0000000 64.162452698 2.6325044632 697.78277588
 1433.1000000 64.129112244 2.6331453323 697.82440186
 1433.2000000 64.095779419 2.6337862015 697.86602783
 1433.3000000 64.631721497 2.6344273090 697.90765381
 1433.4000000 64.626846313 2.6350681782 697.94927979
 1433.5000000 64.621978760 2.6372470856 697.99090576
 1433.6000000 64.617103577 2.6357491016 698.03253174
 1433.7000000 64.612236023 2.6318650246 698.07415771
 1433.8000000 64.607360840 2.6325526237 698.11578369
 1433.9000000 64.602493286 2.6332402229 698.15740967
 1434.0000000 64.597618103 2.6339278221 698.19909668
 1434.1000000 64.592742920 2.6346154213 698.24072266
 1434.2000000 64.587875366 2.6353030205 698.28234863
 1434.3000000 64.583000183 2.6400399208 698.32397461
 1434.4000000 64.578132629 2.6434290409 698.36560059
 1434.5000000 64.573257446 2.6458292007 698.40722656
 1434.6000000 64.568389893 2.6482329369 698.44885254
 1434.7000000 64.563514709 2.6509740353 698.49047852
 1434.8000000 64.558639526 2.6532518864 698.53210449
 1434.9000000 64.553771973 2.6540639400 698.57373047
 1435.0000000 64.548896790 2.6531808376 698.61535645
 1435.1000000 64.544029236 2.6515519619 698.65698242
 1435.2000000 64.539154053 2.6508018970 698.69860840
 1435.3000000 64.534286499 2.6516411304 698.74029541
 1435.4000000 64.529411316 2.6538181305 698.78192139
 1435.5000000 64.524543762 2.6559088230 698.82354736
 1435.6000000 64.519668579 2.6570181847 698.86517334
 1435.7000000 64.514793396 2.6570711136 698.90679932
 1435.8000000 64.509925842 2.6570768356 698.94842529
 1435.9000000 64.505050659 2.6578569412 698.99005127
 1436.0000000 64.500183105 2.6596279144 699.03167725
 1436.1000000 64.495307922 2.6619589329 699.07330322
 1436.2000000 64.490440369 2.6645510197 699.11492920
 1436.3000000 64.485565186 2.6677660942 699.15655518
 1436.4000000 64.480697632 2.6723439693 699.19818115
 1436.5000000 64.475822449 2.6782810688 699.23980713
 1436.6000000 64.470947266 2.6850750446 699.28149414
 1436.7000000 64.466079712 2.6917128563 699.32312012
 1436.8000000 64.461204529 2.6917672157 699.36474609
 1436.9000000 64.456336975 2.6918215752 699.40637207
 1437.0000000 64.451461792 2.6918759346 699.44799805
 1437.1000000 64.446594238 2.6919302940 699.48962402
