# LAS format log file from PETREL
# Project units are specified as depth units
#==================================================================
~Version information
VERS.   2.0:
WRAP.   NO:
#==================================================================
~Well
STRT .m      350.00000000 :
STOP .m      2957.0000000 :
STEP .m     0.10000000 :
NULL .        -999.250000 :
COMP.           : COMPANY
WELL.  P-132   : WELL
FLD.            : FIELD
LOC.            : LOCATION
SRVC.           : SERVICE COMPANY
DATE.  2014-09-16 16:49:33   : Log Export Date {yyyy-MM-dd HH:mm:ss}
PROV.           : PROVINCE
UWI.      : UNIQUE WELL ID
API.            : API NUMBER
#==================================================================
~Curve
DEPT .m                   : DEPTH
Sonic_despiked .us/ft     : Sonic_despiked
RHOB_despiked .g/cm3      : RHOB_despiked
two-waytime .ms           : two-way time
~Parameter
#==================================================================
~Ascii
# ...
 395.30000000  -999.250000  -999.250000 258.52801514
 395.40000000  -999.250000  -999.250000 258.57855225
 395.50000000  -999.250000  -999.250000 258.62908936
 395.60000000  -999.250000  -999.250000 258.67965698
 395.70000000  -999.250000  -999.250000 258.73019409
 395.80000000  -999.250000  -999.250000 258.78076172
 395.90000000  -999.250000  -999.250000 258.83129883
 396.00000000  -999.250000  -999.250000 258.88186646
 396.10000000  -999.250000  -999.250000 258.93240356
 396.20000000  -999.250000  -999.250000 258.98294067
 396.30000000  -999.250000  -999.250000 259.03350830
 396.40000000  -999.250000  -999.250000 259.08404541
 396.50000000  -999.250000  -999.250000 259.13461304
 396.60000000  -999.250000  -999.250000 259.18515015
 396.70000000  -999.250000  -999.250000 259.23571777
 396.80000000  -999.250000  -999.250000 259.28625488
 396.90000000  -999.250000  -999.250000 259.33679199
 397.00000000  -999.250000  -999.250000 259.38735962
 397.10000000  -999.250000  -999.250000 259.43789673
 397.20000000  -999.250000  -999.250000 259.48846436
 397.30000000  -999.250000  -999.250000 259.53900146
 397.40000000  -999.250000  -999.250000 259.58956909
 397.50000000  -999.250000  -999.250000 259.64010620
 397.60000000  -999.250000  -999.250000 259.69067383
 397.70000000  -999.250000  -999.250000 259.74121094
 397.80000000 64.732131958  -999.250000 259.79174805
 397.90000000 64.913497925  -999.250000 259.84231567
 398.00000000 65.094863892  -999.250000 259.89285278
 398.10000000 65.276229858  -999.250000 259.94342041
 398.20000000 65.457595825  -999.250000 259.99395752
 398.30000000 65.638961792  -999.250000 260.04452515
 398.40000000 65.820327759  -999.250000 260.09506226
 398.50000000 66.001701355  -999.250000 260.14559937
 398.60000000 66.183067322  -999.250000 260.19616699
 398.70000000 66.364433289  -999.250000 260.24670410
 398.80000000 66.545799255  -999.250000 260.29727173
 398.90000000 66.942001343  -999.250000 260.34780884
 399.00000000 67.338211060  -999.250000 260.39837646
 399.10000000 67.734413147  -999.250000 260.44891357
 399.20000000 68.130622864  -999.250000 260.49948120
 399.30000000 68.526824951  -999.250000 260.55001831
 399.40000000 68.923034668  -999.250000 260.60055542
 399.50000000 69.319236755  -999.250000 260.65112305
 399.60000000 69.715446472  -999.250000 260.70166016
 399.70000000 70.111648560  -999.250000 260.75222778
 399.80000000 70.507858276  -999.250000 260.80276489
 399.90000000 77.994071960  -999.250000 260.85333252
 400.00000000 78.643493652  -999.250000 260.90386963
 400.10000000 79.292915344  -999.250000 260.95440674
 400.20000000 79.942337036  -999.250000 261.00497437
 400.30000000 80.591758728  -999.250000 261.05551147
 400.40000000 81.241180420  -999.250000 261.10607910
 400.50000000 81.890602112  -999.250000 261.15661621
 400.60000000 82.540016174  -999.250000 261.20718384
 400.70000000 83.189437866  -999.250000 261.25772095
 400.80000000 83.838859558  -999.250000 261.30825806
 400.90000000 84.488281250  -999.250000 261.35882568
 401.00000000 85.137702942  -999.250000 261.40936279
 401.10000000 85.787124634  -999.250000 261.45993042
 401.20000000 86.436546326  -999.250000 261.51046753
 401.30000000 87.085968018  -999.250000 261.56103516
 401.40000000 87.735382080  -999.250000 261.61157227
 401.50000000 88.384803772  -999.250000 261.66213989
 401.60000000 89.034225464  -999.250000 261.71267700
 401.70000000 89.683647156  -999.250000 261.76321411
 401.80000000 90.333068848  -999.250000 261.81378174
 401.90000000 90.982490540  -999.250000 261.86431885
 402.00000000 91.631912231  -999.250000 261.91488647
 402.10000000 92.281333923  -999.250000 261.96542358
 402.20000000 92.930747986  -999.250000 262.01599121
 402.30000000 93.580169678  -999.250000 262.06652832
 402.40000000 94.229591370  -999.250000 262.11706543
 402.50000000 94.879013062 2.2682580948 262.16763306
 402.60000000 95.086547852 2.2640769482 262.21817017
 402.70000000 95.294082642 2.2581429482 262.26873779
 402.80000000 95.501625061 2.2507538795 262.31927490
 402.90000000 95.709159851 2.2431888580 262.36984253
 403.00000000 95.916694641 2.2371399403 262.42037964
 403.10000000 96.124229431 2.2337610722 262.47094727
 403.20000000 96.331771851 2.2334580421 262.52148438
 403.30000000 96.539306641 2.2345659733 262.57202148
 403.40000000 96.746841431 2.2357809544 262.62258911
 403.50000000 96.954376221 2.2364070415 262.67312622
 403.60000000 97.161911011 2.2372009754 262.72369385
 403.70000000 97.369453430 2.2394239902 262.77423096
 403.80000000 97.576988220 2.2445209026 262.82479858
 403.90000000 97.784523010 2.2525701523 262.87533569
 404.00000000 97.992057800 2.2627499104 262.92587280
 404.10000000 98.199600220 2.2738778591 262.97644043
 404.20000000 98.407135010 2.2842638493 263.02697754
 404.30000000 98.614669800 2.2926149368 263.07754517
 404.40000000 98.822204590 2.2979431152 263.12808228
 404.50000000 99.029739380 2.2997639179 263.17864990
 404.60000000 99.237281799 2.2988369465 263.22918701
 404.70000000 99.444816589 2.2956111431 263.27972412
 404.80000000 99.652351379 2.2904021740 263.33029175
 404.90000000 99.859886169 2.2842218876 263.38082886
 405.00000000 100.06742859 2.2777929306 263.43139648
 405.10000000 100.27496338 2.2716951370 263.48193359
 405.20000000 100.48249817 2.2656850815 263.53250122
 405.30000000 100.24293518 2.2589690685 263.58303833
 405.40000000 100.02377319 2.2505669594 263.63360596
 405.50000000 99.785423279 2.2407081127 263.68414307
 405.60000000 99.515983582 2.2306859493 263.73468018
 405.70000000 99.209960938 2.2223989964 263.78524780
 405.80000000 98.756111145 2.2173011303 263.83578491
 405.90000000 98.110549927 2.2153820992 263.88635254
 406.00000000 98.221931458 2.2165949345 263.93688965
 406.10000000 98.333312988 2.2216620445 263.98745728
 406.20000000 98.444694519 2.2316420078 264.03799438
 406.30000000 98.556076050 2.2485620975 264.08853149
 406.40000000 98.667449951 2.2754499912 264.13909912
 406.50000000 98.778831482 2.3103230000 264.18963623
 406.60000000 98.890213013 2.2989206314 264.24020386
 406.70000000 99.001594543 2.2875185013 264.29074097
 406.80000000 99.112976074 2.2761161327 264.34130859
 406.90000000 99.224357605 2.2647140026 264.39184570
 407.00000000 99.523880005 2.1636960506 264.44241333
 407.10000000 99.823410034 2.0626950264 264.49295044
 407.20000000 100.12293243 1.9717580080 264.54348755
 407.30000000 100.42245483 1.8945629597 264.59405518
 407.40000000 100.72197723 1.8324189186 264.64459229
 407.50000000 101.02150726 1.7899050713 264.69515991
 407.60000000 101.32102966 1.7586801052 264.74569702
 407.70000000 101.62055206 1.7592785358 264.79626465
 407.80000000 101.92008209 1.7598769665 264.84680176
 407.90000000 102.21960449 1.7604755163 264.89733887
 408.00000000 102.51912689 1.7610739470 264.94790649
 408.10000000 102.81865692 1.8214190006 264.99844360
 408.20000000 103.11817932 1.8989090919 265.04901123
 408.30000000 103.41770172 1.9805769920 265.09954834
 408.40000000 103.71722412 2.0538878441 265.15011597
 408.50000000 104.01675415 2.1219909191 265.20065308
 408.60000000 104.31627655 2.1805582047 265.25119019
 408.70000000 104.28860474 2.1745409966 265.30175781
 408.80000000 104.26094055 2.1685235500 265.35229492
 408.90000000 104.23326874 2.1625063419 265.40286255
 409.00000000 104.20560455 2.1564888954 265.45339966
 409.10000000 104.17793274 2.0835139751 265.50396729
 409.20000000 104.15026855 1.9888509512 265.55450439
 409.30000000 104.12259674 1.8738890886 265.60507202
 409.40000000 104.09493256 1.7527900934 265.65560913
 409.50000000 104.06726074 1.7503786087 265.70614624
 409.60000000 102.97088623 1.7479671240 265.75671387
 409.70000000 102.34513855 1.7455556393 265.80725098
 409.80000000 102.21346283 1.7431441545 265.85781860
 409.90000000 103.61798096 1.7407326698 265.90835571
 410.00000000 105.01639557 1.7383211851 265.95892334
 410.10000000 105.07514954 1.7359098196 266.00946045
 410.20000000 105.13390350 1.7334983349 266.05999756
 410.30000000 105.19265747 1.7310868502 266.11056519
