# LAS format log file from PETREL
# Project units are specified as depth units
#==================================================================
~Version information
VERS.   2.0:
WRAP.   NO:
#==================================================================
~Well
STRT .m      350.00000000 :
STOP .m      2957.0000000 :
STEP .m     0.10000000 :
NULL .        -999.250000 :
COMP.           : COMPANY
WELL.  P-132   : WELL
FLD.            : FIELD
LOC.            : LOCATION
SRVC.           : SERVICE COMPANY
DATE.  2014-09-16 16:49:33   : Log Export Date {yyyy-MM-dd HH:mm:ss}
PROV.           : PROVINCE
UWI.      : UNIQUE WELL ID
API.            : API NUMBER
#==================================================================
~Curve
DEPT .m                   : DEPTH
Sonic_despiked .us/ft     : Sonic_despiked
RHOB_despiked .g/cm3      : RHOB_despiked
two-waytime .ms           : two-way time
~Parameter
#==================================================================
~Ascii
# ...
 2947.2000000 58.403335571 2.6871931553 1313.0303955
 2947.3000000 58.403335571 2.7002909184 1313.0679932
 2947.4000000 58.403335571 2.7143290043 1313.1057129
 2947.5000000 58.403335571 2.7150459290 1313.1433105
 2947.6000000 58.403335571 2.7157626152 1313.1810303
 2947.7000000 58.403335571 2.7164795399 1313.2186279
 2947.8000000 58.403335571 2.7171964645 1313.2563477
 2947.9000000 58.403335571 2.7179133892 1313.2939453
 2948.0000000 58.403335571 2.7186300755 1313.3316650
 2948.1000000 58.403335571 2.7193470001 1313.3692627
 2948.2000000 58.403335571 2.7094559669 1313.4069824
 2948.3000000 58.403335571 2.7064030170 1313.4445801
 2948.4000000 58.403335571 2.7107560635 1313.4822998
 2948.5000000 58.403335571 2.7209761143 1313.5198975
 2948.6000000 58.403335571 2.7200589180 1313.5576172
 2948.7000000 58.403335571 2.7191414833 1313.5952148
 2948.8000000 58.403335571 2.7182242870 1313.6329346
 2948.9000000 58.403335571 2.7173070908 1313.6705322
 2949.0000000 58.403335571 2.7163896561 1313.7082520
 2949.1000000 58.403335571 2.7154724598 1313.7458496
 2949.2000000 58.403335571 2.7145550251 1313.7835693
 2949.3000000 58.403335571 2.7136378288 1313.8211670
 2949.4000000 58.403335571 2.7034220695 1313.8588867
 2949.5000000 58.403335571 2.6952939034 1313.8964844
 2949.6000000 58.403335571 2.6893899441 1313.9342041
 2949.7000000 58.403335571 2.6855690479 1313.9718018
 2949.8000000 58.403335571 2.6839938164 1314.0095215
 2949.9000000 58.403335571 2.6844580173 1314.0471191
 2950.0000000 58.403335571 2.6869871616 1314.0848389
 2950.1000000 58.403335571 2.6911170483  -999.250000
 2950.2000000 58.403335571 2.6949839592  -999.250000
 2950.3000000 58.403335571 2.6967220306  -999.250000
 2950.4000000 58.403335571 2.6949961185  -999.250000
 2950.5000000 58.403335571 2.6904489994  -999.250000
 2950.6000000 58.403335571 2.6849198341  -999.250000
 2950.7000000 58.403335571 2.6798660755  -999.250000
 2950.8000000 58.403335571 2.6762871742  -999.250000
 2950.9000000 58.403335571 2.6746490002  -999.250000
 2951.0000000 58.403335571 2.6759588718  -999.250000
 2951.1000000 58.403335571 2.6820061207  -999.250000
 2951.2000000 58.403335571 2.6924078465  -999.250000
 2951.3000000 58.403335571 2.6987128258  -999.250000
 2951.4000000 58.403335571 2.7040081024  -999.250000
 2951.5000000 58.403335571 2.7094249725  -999.250000
 2951.6000000 58.403335571 2.7098360062  -999.250000
 2951.7000000 58.403335571 2.7102470398  -999.250000
 2951.8000000 58.403335571 2.7106580734  -999.250000
 2951.9000000 58.403335571 2.7035081387  -999.250000
 2952.0000000 58.403335571 2.6936211586  -999.250000
 2952.1000000 58.403335571 2.6833269596  -999.250000
 2952.2000000 58.403335571 2.6746189594  -999.250000
 2952.3000000 58.403335571 2.6685690880  -999.250000
 2952.4000000 58.403335571 2.6650719643  -999.250000
 2952.5000000 58.403335571 2.6628181934  -999.250000
 2952.6000000 58.403335571 2.6609208584  -999.250000
 2952.7000000 58.403335571 2.6588358879  -999.250000
 2952.8000000 58.403335571 2.6564550400  -999.250000
 2952.9000000 58.403335571 2.6536688805  -999.250000
 2953.0000000 58.403335571 2.6492438316  -999.250000
 2953.1000000 58.403335571 2.6357791424  -999.250000
 2953.2000000 58.403335571 2.6357791424  -999.250000
 2953.3000000 58.403335571 2.6357791424  -999.250000
 2953.4000000 58.403335571 2.6357791424  -999.250000
 2953.5000000 58.403335571 2.6357791424  -999.250000
 2953.6000000 58.403335571 2.6357791424  -999.250000
 2953.7000000 58.403335571 2.6357791424  -999.250000
 2953.8000000 58.403335571 2.6357791424  -999.250000
 2953.9000000 58.403335571 2.6357791424  -999.250000
 2954.0000000 58.403335571 2.6357791424  -999.250000
 2954.1000000 58.403335571 2.6357791424  -999.250000
 2954.2000000 58.403335571 2.6357791424  -999.250000
 2954.3000000 58.403335571 2.6357791424  -999.250000
 2954.4000000 58.403335571 2.6357791424  -999.250000
 2954.5000000 58.403335571 2.6357791424  -999.250000
 2954.6000000 58.403335571 2.6357791424  -999.250000
 2954.7000000 58.403335571 2.6357791424  -999.250000
 2954.8000000 58.403335571 2.6357791424  -999.250000
 2954.9000000 58.403335571 2.6357791424  -999.250000
 2955.0000000 58.403335571 2.6357791424  -999.250000
 2955.1000000 58.403335571 2.6357791424  -999.250000
 2955.2000000 58.403335571 2.6357791424  -999.250000
 2955.3000000 58.403335571 2.6357791424  -999.250000
 2955.4000000 58.403335571 2.6357791424  -999.250000
 2955.5000000 58.403335571 2.6357791424  -999.250000
 2955.6000000 58.403335571 2.6357791424  -999.250000
 2955.7000000 58.403335571 2.6357791424  -999.250000
 2955.8000000 58.403335571 2.6357791424  -999.250000
 2955.9000000 58.403335571 2.6357791424  -999.250000
 2956.0000000 58.403335571 2.6357791424  -999.250000
 2956.1000000 58.403335571 2.6357791424  -999.250000
 2956.2000000 58.403335571 2.6357791424  -999.250000
 2956.3000000 58.403335571 2.6357791424  -999.250000
 2956.4000000 58.403335571 2.6357791424  -999.250000
 2956.5000000 58.403335571 2.6357791424  -999.250000
 2956.6000000 58.403335571 2.6357791424  -999.250000
 2956.7000000 58.403335571 2.6357791424  -999.250000
 2956.8000000 58.403335571 2.6357791424  -999.250000
 2956.9000000 58.403335571 2.6357791424  -999.250000
 2957.0000000 58.403335571 2.6357791424  -999.250000
