# LAS format log file from PETREL
# Project units are specified as depth units
#==================================================================
~Version information
VERS.   2.0:
WRAP.   NO:
#==================================================================
~Well
STRT .m      350.00000000 :
STOP .m      2957.0000000 :
STEP .m     0.10000000 :
NULL .        -999.250000 :
COMP.           : COMPANY
WELL.  P-132   : WELL
FLD.            : FIELD
LOC.            : LOCATION
SRVC.           : SERVICE COMPANY
DATE.  2014-09-16 16:49:33   : Log Export Date {yyyy-MM-dd HH:mm:ss}
PROV.           : PROVINCE
UWI.      : UNIQUE WELL ID
API.            : API NUMBER
#==================================================================
~Curve
DEPT .m                   : DEPTH
Sonic_despiked .us/ft     : Sonic_despiked
RHOB_despiked .g/cm3      : RHOB_despiked
two-waytime .ms           : two-way time
~Parameter
#==================================================================
~Ascii
# ...
 1240.9000000 67.970397949 2.6812181473 617.06250000
 1241.0000000 68.194427490 2.6810009480 617.10449219
 1241.1000000 68.498313904 2.6621890068 617.14648438
 1241.2000000 68.851882935 2.6401388645 617.18847656
 1241.3000000 68.861221313 2.6153709888 617.23046875
 1241.4000000 68.870567322 2.6146175861 617.27246094
 1241.5000000 68.879905701 2.6138641834 617.31445313
 1241.6000000 68.889251709 2.6131107807 617.35650635
 1241.7000000 68.898590088 2.6123573780 617.39849854
 1241.8000000 68.907936096 2.6116039753 617.44049072
 1241.9000000 68.917274475 2.6108505726 617.48248291
 1242.0000000 68.926612854 2.6100971699 617.52447510
 1242.1000000 68.935958862 2.6093437672 617.56646729
 1242.2000000 68.945297241 2.6085903645 617.60845947
 1242.3000000 68.954643250 2.6078369617 617.65045166
 1242.4000000 68.963981628 2.6070835590 617.69244385
 1242.5000000 68.973327637 2.6063299179 617.73443604
 1242.6000000 68.982666016 2.6055765152 617.77642822
 1242.7000000 68.992004395 2.6048231125 617.81848145
 1242.8000000 69.001350403 2.6040697098 617.86047363
 1242.9000000 69.010688782 2.6033163071 617.90246582
 1243.0000000 69.020034790 2.6025629044 617.94445801
 1243.1000000 69.029373169 2.6018095016 617.98645020
 1243.2000000 69.038719177 2.6010560989 618.02844238
 1243.3000000 69.048057556 2.6003026962 618.07043457
 1243.4000000 69.057403564 2.5995492935 618.11242676
 1243.5000000 69.066741943 2.5987958908 618.15441895
 1243.6000000 69.076080322 2.5980424881 618.19641113
 1243.7000000 69.085426331 2.5972890854 618.23840332
 1243.8000000 69.094764709 2.5976245403 618.28039551
 1243.9000000 69.104110718 2.5979599953 618.32244873
 1244.0000000 69.113449097 2.5982954502 618.36444092
 1244.1000000 69.122795105 2.5986306667 618.40643311
 1244.2000000 69.132133484 2.5989661217 618.44842529
 1244.3000000 69.141471863 2.5993015766 618.49041748
 1244.4000000 69.150817871 2.5996370316 618.53240967
 1244.5000000 69.160156250 2.5999722481 618.57440186
 1244.6000000 69.169502258 2.6003077030 618.61639404
 1244.7000000 69.178840637 2.6006431580 618.65838623
 1244.8000000 69.188186646 2.6009786129 618.70037842
 1244.9000000 69.197525024 2.6013138294 618.74237061
 1245.0000000 68.808906555 2.6016492844 618.78442383
 1245.1000000 68.406570435 2.6019847393 618.82641602
 1245.2000000 68.353225708 2.6023201942 618.86840820
 1245.3000000 68.408096313 2.6026554108 618.91040039
 1245.4000000 68.581825256 2.6029908657 618.95239258
 1245.5000000 68.636993408 2.6033263206 618.99438477
 1245.6000000 68.600425720 2.6036617756 619.03637695
 1245.7000000 68.423637390 2.6039969921 619.07836914
 1245.8000000 68.251121521 2.6043324471 619.12036133
 1245.9000000 68.126762390 2.6046679020 619.16235352
 1246.0000000 68.112434387 2.6342930794 619.20434570
 1246.1000000 68.276115417 2.6646609306 619.24639893
 1246.2000000 68.530319214 2.6889929771 619.28839111
 1246.3000000 68.901260376 2.6897661686 619.33038330
 1246.4000000 69.307556152 2.6905391216 619.37237549
 1246.5000000 69.256095886 2.6913123131 619.41436768
 1246.6000000 69.204635620 2.6920852661 619.45635986
 1246.7000000 69.153175354 2.6928584576 619.49835205
 1246.8000000 69.101715088 2.6936314106 619.54034424
 1246.9000000 69.050254822 2.6944046021 619.58233643
 1247.0000000 68.998794556 2.6951777935 619.62432861
 1247.1000000 68.947334290 2.6959507465 619.66632080
 1247.2000000 68.895874023 2.6967239380 619.70837402
 1247.3000000 68.844413757 2.6974968910 619.75036621
 1247.4000000 68.792953491 2.6982700825 619.79235840
 1247.5000000 68.741493225 2.6783490181 619.83435059
 1247.6000000 68.690032959 2.6591508389 619.87634277
 1247.7000000 68.638572693 2.6449379921 619.91833496
 1247.8000000 68.587112427 2.6394450665 619.96032715
 1247.9000000 68.535652161 2.6423768997 620.00231934
 1248.0000000 68.484191895 2.6530821323 620.04431152
 1248.1000000 68.432731628 2.6698391438 620.08630371
 1248.2000000 68.381271362 2.6879718304 620.12829590
 1248.3000000 67.275146484 2.7038588524 620.17028809
 1248.4000000 67.246017456 2.6968650818 620.21234131
 1248.5000000 67.216888428 2.6894950867 620.25433350
 1248.6000000 67.187759399 2.6875019073 620.29632568
 1248.7000000 67.158630371 2.6923568249 620.33831787
 1248.8000000 67.129501343 2.7021908760 620.38031006
 1248.9000000 67.100372314 2.7030446529 620.42230225
 1249.0000000 67.071243286 2.7038981915 620.46429443
 1249.1000000 67.042121887 2.7047519684 620.50628662
 1249.2000000 67.012992859 2.7056057453 620.54827881
 1249.3000000 66.983863831 2.7064592838 620.59027100
 1249.4000000 66.954734802 2.7073130608 620.63226318
 1249.5000000 66.925605774 2.6995511055 620.67431641
 1249.6000000 66.896476746 2.6937198639 620.71630859
 1249.7000000 66.867347717 2.6914541721 620.75830078
 1249.8000000 66.838218689 2.6930801868 620.80029297
 1249.9000000 66.809089661 2.6985130310 620.84228516
 1250.0000000 66.779960632 2.7070810795 620.88427734
 1250.1000000 66.750831604 2.7072343826 620.92663574
 1250.2000000 66.721702576 2.7073876858 620.96899414
 1250.3000000 66.692573547 2.7075409889 621.01129150
 1250.4000000 66.663444519 2.7076942921 621.05364990
 1250.5000000 66.634315491 2.7078475952 621.09600830
 1250.6000000 66.605194092 2.7080008984 621.13836670
 1250.7000000 66.576065063 2.6978111267 621.18066406
 1250.8000000 66.546936035 2.6873450279 621.22302246
 1250.9000000 66.517807007 2.6769838333 621.26538086
 1251.0000000 66.488677979 2.6665110588 621.30773926
 1251.1000000 66.459548950 2.6555829048 621.35009766
 1251.2000000 66.430419922 2.6434869766 621.39239502
 1251.3000000 66.401290894 2.6416833401 621.43475342
 1251.4000000 66.781982422 2.6398797035 621.47711182
 1251.5000000 67.217544556 2.6380763054 621.51947021
 1251.6000000 67.380004883 2.6362726688 621.56176758
 1251.7000000 67.486068726 2.6344690323 621.60412598
 1251.8000000 67.477691650 2.6466550827 621.64648438
 1251.9000000 67.469306946 2.6584007740 621.68884277
 1252.0000000 67.387931824 2.6691970825 621.73120117
 1252.1000000 67.337028503 2.6790099144 621.77349854
 1252.2000000 67.303802490 2.6871609688 621.81585693
 1252.3000000 67.231918335 2.6926569939 621.85821533
 1252.4000000 67.160034180 2.6957759857 621.90057373
 1252.5000000 67.088142395 2.6971077919 621.94287109
 1252.6000000 67.016258240 2.6973578930 621.98522949
 1252.7000000 66.944374084 2.6972398758 622.02758789
 1252.8000000 66.872489929 2.6969199181 622.06994629
 1252.9000000 66.800598145 2.6964280605 622.11230469
 1253.0000000 66.728713989 2.6957180500 622.15460205
 1253.1000000 66.656829834 2.6944689751 622.19696045
 1253.2000000 66.584945679 2.6919431686 622.23931885
 1253.3000000 66.513053894 2.6877179146 622.28167725
 1253.4000000 66.441169739 2.6819970608 622.32403564
 1253.5000000 66.369285583 2.6751940250 622.36633301
 1253.6000000 66.866790771 2.6679599285 622.40869141
 1253.7000000 66.835571289 2.6610648632 622.45104980
 1253.8000000 66.804359436 2.6555690765 622.49340820
 1253.9000000 66.773139954 2.6530330181 622.53570557
 1254.0000000 66.741928101 2.6537199020 622.57806396
 1254.1000000 66.710716248 2.6570501328 622.62042236
 1254.2000000 66.679496765 2.6609399319 622.66278076
 1254.3000000 66.648284912 2.6622419357 622.70513916
 1254.4000000 66.617065430 2.6589450836 622.74743652
 1254.5000000 66.585853577 2.6499950886 622.78979492
 1254.6000000 66.554634094 2.6378519535 622.83215332
 1254.7000000 66.523422241 2.6374683380 622.87451172
 1254.8000000 66.492210388 2.6370844841 622.91680908
 1254.9000000 66.460990906 2.6367008686 622.95916748
 1255.0000000 66.429779053 2.6363170147 623.00152588
 1255.1000000 66.398559570 2.6359333992 623.04388428
 1255.2000000 66.367347717 2.6355497837 623.08624268
 1255.3000000 66.336128235 2.6351659298 623.12854004
 1255.4000000 66.304916382 2.6347823143 623.17089844
 1255.5000000 66.273696899 2.6343984604 623.21325684
 1255.6000000 66.242485046 2.6340148449 623.25561523
 1255.7000000 66.482063293 2.6418678761 623.29791260
 1255.8000000 66.634765625 2.6422331333 623.34027100
 1255.9000000 66.625617981 2.6425981522 623.38262939
