# LAS format log file from PETREL
# Project units are specified as depth units
#==================================================================
~Version information
VERS.   2.0:
WRAP.   NO:
#==================================================================
~Well
STRT .m      350.00000000 :
STOP .m      2957.0000000 :
STEP .m     0.10000000 :
NULL .        -999.250000 :
COMP.           : COMPANY
WELL.  P-132   : WELL
FLD.            : FIELD
LOC.            : LOCATION
SRVC.           : SERVICE COMPANY
DATE.  2014-09-16 16:49:33   : Log Export Date {yyyy-MM-dd HH:mm:ss}
PROV.           : PROVINCE
UWI.      : UNIQUE WELL ID
API.            : API NUMBER
#==================================================================
~Curve
DEPT .m                   : DEPTH
Sonic_despiked .us/ft     : Sonic_despiked
RHOB_despiked .g/cm3      : RHOB_despiked
two-waytime .ms           : two-way time
~Parameter
#==================================================================
~Ascii
# ...
 742.60000000 66.477554321 2.0663359165 412.15975952
 742.70000000 66.522232056 2.0692830086 412.20190430
 742.80000000 66.566917419 2.0710220337 412.24404907
 742.90000000 66.611602783 2.0711970329 412.28619385
 743.00000000 66.595596313 2.0705680847 412.32833862
 743.10000000 66.634765625 2.0697970390 412.37048340
 743.20000000 66.673927307 2.0692501068 412.41262817
 743.30000000 66.713096619 2.0685610771 412.45477295
 743.40000000 66.648788452 2.0671699047 412.49691772
 743.50000000 66.646652222 2.0647709370 412.53906250
 743.60000000 66.658843994 2.0620238781 412.58117676
 743.70000000 66.685058594 2.0597980022 412.62332153
 743.80000000 66.729560852 2.0586211681 412.66546631
 743.90000000 66.756690979 2.0580379963 412.70761108
 744.00000000 66.747848511 2.0570659637 412.74975586
 744.10000000 66.703956604 2.0550000668 412.79190063
 744.20000000 66.649703979 2.0519850254 412.83404541
 744.30000000 66.588439941 2.0491869450 412.87619019
 744.40000000 66.543632507 2.0479691029 412.91833496
 744.50000000 66.504615784 2.0503392220 412.96044922
 744.60000000 66.524551392 2.0569350719 413.00259399
 744.70000000 66.544487000 2.0680768490 413.04473877
 744.80000000 66.564414978 2.0832700729 413.08688354
 744.90000000 66.584350586 2.0991609097 413.12902832
 745.00000000 66.604286194 2.0980560780 413.17117310
 745.10000000 66.730171204 2.0969514847 413.21331787
 745.20000000 66.907562256 2.0958466530 413.25546265
 745.30000000 66.920127869 2.0947420597 413.29760742
 745.40000000 66.932693481 2.0936372280 413.33975220
 745.50000000 66.945259094 2.0925323963 413.38189697
 745.60000000 66.957817078 2.0914278030 413.42401123
 745.70000000 66.970382690 2.0903229713 413.46615601
 745.80000000 66.982948303 2.0814349651 413.50830078
 745.90000000 66.995513916 2.0726139545 413.55044556
 746.00000000 67.008079529 2.0653769970 413.59259033
 746.10000000 67.020645142 2.0615100861 413.63473511
 746.20000000 67.033210754 2.0608201027 413.67687988
 746.30000000 67.045768738 2.0626668930 413.71902466
 746.40000000 67.058334351 2.0658910275 413.76116943
 746.50000000 67.070899963 2.0687620640 413.80328369
 746.60000000 67.083465576 2.0701029301 413.84542847
 746.70000000 67.096031189 2.0688500404 413.88757324
 746.80000000 67.108596802 2.0652608871 413.92971802
 746.90000000 67.121154785 2.0604760647 413.97186279
 747.00000000 67.125198364 2.0560820103 414.01400757
 747.10000000 67.129241943 2.0534908772 414.05615234
 747.20000000 67.133285522 2.0528340340 414.09829712
 747.30000000 67.137336731 2.0536170006 414.14044189
 747.40000000 67.141380310 2.0551078320 414.18258667
 747.50000000 67.145423889 2.0570299625 414.22473145
 747.60000000 67.149467468 2.0597059727 414.26684570
 747.70000000 67.153511047 2.0634579659 414.30899048
 747.80000000 67.157562256 2.0675239563 414.35113525
 747.90000000 67.161605835 2.0708248615 414.39328003
 748.00000000 67.165649414 2.0720138550 414.43542480
 748.10000000 67.169692993 2.0711889267 414.47756958
 748.20000000 67.160545349 2.0691030025 414.51971436
 748.30000000 67.163597107 2.0669240952 414.56185913
 748.40000000 67.160545349 2.0657720566 414.60400391
 748.50000000 67.144088745 2.0661380291 414.64611816
 748.60000000 67.129150391 2.0681641102 414.68826294
 748.70000000 67.184326172 2.0712351799 414.73040771
 748.80000000 67.181037903 2.0742428303 414.77255249
 748.90000000 67.177757263 2.0760128498 414.81469727
 749.00000000 67.174468994 2.0754189491 414.85684204
 749.10000000 67.171180725 2.0724618435 414.89898682
 749.20000000 67.167900085 2.0674109459 414.94113159
 749.30000000 67.164611816 2.0608379841 414.98327637
 749.40000000 67.161323547 2.0539629459 415.02542114
 749.50000000 67.158042908 2.0476639271 415.06756592
 749.60000000 67.154754639 2.0475625992 415.10968018
 749.70000000 67.076423645 2.0474612713 415.15182495
 749.80000000 67.082244873 2.0473599434 415.19396973
 749.90000000 67.092788696 2.0472588539 415.23611450
 750.00000000 67.103332520 2.0471575260 415.27825928
 750.10000000 67.113876343 2.0470561981 415.32070923
 750.20000000 67.124420166 2.0469548702 415.36315918
 750.30000000 67.134963989 2.0475499630 415.40560913
 750.40000000 67.145500183 2.0479319096 415.44805908
 750.50000000 67.156044006 2.0488409996 415.49050903
 750.60000000 67.166587830 2.0509939194 415.53295898
 750.70000000 67.177131653 2.0543200970 415.57540894
 750.80000000 67.187675476 2.0583689213 415.61785889
 750.90000000 67.246498108 2.0621740818 415.66030884
 751.00000000 67.244812012 2.0648500919 415.70275879
 751.10000000 67.243125916 2.0659489632 415.74520874
 751.20000000 67.241439819 2.0653369427 415.78765869
 751.30000000 67.239753723 2.0638849735 415.83010864
 751.40000000 67.238067627 2.0624170303 415.87255859
 751.50000000 67.236381531 2.0616998672 415.91500854
 751.60000000 67.234695435 2.0618898869 415.95748901
 751.70000000 67.233009338 2.0625391006 415.99993896
 751.80000000 67.231323242 2.0628621578 416.04238892
 751.90000000 67.229637146 2.0620877743 416.08483887
 752.00000000 67.227951050 2.0601489544 416.12728882
 752.10000000 67.226264954 2.0574030876 416.16973877
 752.20000000 67.224578857 2.0545911789 416.21218872
 752.30000000 67.222892761 2.0522990227 416.25463867
 752.40000000 67.221206665 2.0507128239 416.29708862
 752.50000000 67.215408325 2.0497059822 416.33953857
 752.60000000 67.216156006 2.0498037338 416.38198853
 752.70000000 67.216911316 2.0499012470 416.42443848
 752.80000000 67.217658997 2.0499989986 416.46688843
 752.90000000 67.218414307 2.0500967503 416.50933838
 753.00000000 67.219161987 2.0501942635 416.55178833
 753.10000000 67.219917297 2.0502920151 416.59423828
 753.20000000 67.220664978 2.0503897667 416.63668823
 753.30000000 67.221420288 2.0504872799 416.67913818
 753.40000000 67.222167969 2.0505850315 416.72158813
 753.50000000 67.222923279 2.0541388988 416.76403809
 753.60000000 67.223670959 2.0564160347 416.80648804
 753.70000000 67.224426270 2.0573358536 416.84893799
 753.80000000 67.225173950 2.0577819347 416.89138794
 753.90000000 67.225921631 2.0590372086 416.93383789
 754.00000000 67.226676941 2.0617508888 416.97628784
 754.10000000 67.227424622 2.0618860722 417.01873779
 754.20000000 67.228179932 2.0620212555 417.06118774
 754.30000000 67.228927612 2.0621564388 417.10363770
 754.40000000 67.229682922 2.0622916222 417.14608765
 754.50000000 67.230430603 2.0624268055 417.18853760
 754.60000000 67.231185913 2.0625619888 417.23098755
 754.70000000 67.231933594 2.0576059818 417.27346802
 754.80000000 67.232688904 2.0533459187 417.31591797
 754.90000000 67.233436584 2.0499007702 417.35836792
 755.00000000 67.234191895 2.0504140854 417.40081787
 755.10000000 67.234939575 2.0509271622 417.44326782
 755.20000000 67.235694885 2.0514404774 417.48571777
 755.30000000 67.236442566 2.0519535542 417.52816772
 755.40000000 67.278694153 2.0524668694 417.57061768
 755.50000000 67.280876160 2.0529799461 417.61306763
 755.60000000 67.283058167 2.0568768978 417.65551758
 755.70000000 67.285240173 2.0598688126 417.69796753
 755.80000000 67.287422180 2.0617289543 417.74041748
 755.90000000 67.289604187 2.0627589226 417.78286743
 756.00000000 67.291786194 2.0634341240 417.82531738
 756.10000000 67.293968201 2.0642299652 417.86776733
 756.20000000 67.296150208 2.0653910637 417.91021729
 756.30000000 67.298332214 2.0651102066 417.95266724
 756.40000000 67.300514221 2.0648293495 417.99511719
 756.50000000 67.302696228 2.0645484924 418.03756714
 756.60000000 67.304878235 2.0642676353 418.08001709
 756.70000000 67.307060242 2.0639867783 418.12246704
 756.80000000 67.309242249 2.0637059212 418.16491699
 756.90000000 67.311424255 2.0634250641 418.20736694
 757.00000000 67.215850830 2.0597140789 418.24981689
 757.10000000 67.215858459 2.0572547913 418.29226685
 757.20000000 67.215873718 2.0563559532 418.33471680
 757.30000000 67.215881348 2.0568101406 418.37716675
 757.40000000 67.215888977 2.0574960709 418.41961670
 757.50000000 67.215896606 2.0576210022 418.46206665
 757.60000000 67.215911865 2.0564880371 418.50451660
