# LAS format log file from PETREL
# Project units are specified as depth units
#==================================================================
~Version information
VERS.   2.0:
WRAP.   NO:
#==================================================================
~Well
STRT .m      350.00000000 :
STOP .m      2957.0000000 :
STEP .m     0.10000000 :
NULL .        -999.250000 :
COMP.           : COMPANY
WELL.  P-132   : WELL
FLD.            : FIELD
LOC.            : LOCATION
SRVC.           : SERVICE COMPANY
DATE.  2014-09-16 16:49:33   : Log Export Date {yyyy-MM-dd HH:mm:ss}
PROV.           : PROVINCE
UWI.      : UNIQUE WELL ID
API.            : API NUMBER
#==================================================================
~Curve
DEPT .m                   : DEPTH
Sonic_despiked .us/ft     : Sonic_despiked
RHOB_despiked .g/cm3      : RHOB_despiked
two-waytime .ms           : two-way time
~Parameter
#==================================================================
~Ascii
# ...
 2781.1000000 58.478282928 2.7107379436 1250.0106201
 2781.2000000 58.432659149 2.7099564075 1250.0489502
 2781.3000000 58.387035370 2.7091748714 1250.0872803
 2781.4000000 58.341411591 2.7083933353 1250.1256104
 2781.5000000 58.295787811 2.7076117992 1250.1639404
 2781.6000000 58.250164032 2.7068302631 1250.2022705
 2781.7000000 58.204540253 2.7060487270 1250.2406006
 2781.8000000 58.158916473 2.7052671909 1250.2789307
 2781.9000000 58.113288879 2.6961832047 1250.3173828
 2782.0000000 58.067665100 2.6895000935 1250.3557129
 2782.1000000 58.022041321 2.6867179871 1250.3940430
 2782.2000000 57.976417542 2.6877250671 1250.4323730
 2782.3000000 57.930793762 2.6915171146 1250.4707031
 2782.4000000 57.885169983 2.6959540844 1250.5090332
 2782.5000000 57.839546204 2.6993410587 1250.5473633
 2782.6000000 57.793922424 2.7012491226 1250.5856934
 2782.7000000 57.748294830 2.7023210526 1250.6240234
 2782.8000000 57.702671051 2.7035539150 1250.6623535
 2782.9000000 57.657047272 2.7052261829 1250.7006836
 2783.0000000 57.611423492 2.7071590424 1250.7390137
 2783.1000000 57.565799713 2.7089900970 1250.7773438
 2783.2000000 57.520175934 2.7103500366 1250.8156738
 2783.3000000 57.474552155 2.7103469372 1250.8540039
 2783.4000000 57.428928375 2.7081608772 1250.8923340
 2783.5000000 57.383304596 2.7033879757 1250.9306641
 2783.6000000 57.337677002 2.6963160038 1250.9689941
 2783.7000000 57.292053223 2.6888110638 1251.0074463
 2783.8000000 57.246429443 2.6829380989 1251.0457764
 2783.9000000 57.200805664 2.6802408695 1251.0841064
 2784.0000000 57.155181885 2.6805310249 1251.1224365
 2784.1000000 57.545932770 2.6815960407 1251.1607666
 2784.2000000 57.926631927 2.6812160015 1251.1990967
 2784.3000000 57.875663757 2.6777980328 1251.2374268
 2784.4000000 57.824691772 2.6779170036 1251.2757568
 2784.5000000 57.773723602 2.6780359745 1251.3140869
 2784.6000000 57.722755432 2.6781547070 1251.3524170
 2784.7000000 57.671783447 2.6782736778 1251.3907471
 2784.8000000 57.620815277 2.6783926487 1251.4290771
 2784.9000000 57.569847107 2.6785116196 1251.4674072
 2785.0000000 57.518875122 2.6786305904 1251.5057373
 2785.1000000 57.467906952 2.6787495613 1251.5440674
 2785.2000000 57.416938782 2.6788682938 1251.5823975
 2785.3000000 57.365966797 2.6789872646 1251.6207275
 2785.4000000 57.314998627 2.6791062355 1251.6590576
 2785.5000000 57.264030457 2.6792252064 1251.6975098
 2785.6000000 57.213058472 2.6793441772 1251.7358398
 2785.7000000 57.162090302 2.6794629097 1251.7741699
 2785.8000000 57.111122131 2.6795818806 1251.8125000
 2785.9000000 57.060150146 2.6797008514 1251.8508301
 2786.0000000 57.009181976 2.6907520294 1251.8891602
 2786.1000000 57.016273499 2.6995019913 1251.9274902
 2786.2000000 57.023368835 2.7052929401 1251.9658203
 2786.3000000 57.030460358 2.7045061588 1252.0041504
 2786.4000000 57.037551880 2.7037196159 1252.0424805
 2786.5000000 57.044643402 2.7029328346 1252.0808105
 2786.6000000 57.051738739 2.7021460533 1252.1191406
 2786.7000000 57.058830261 2.7013592720 1252.1574707
 2786.8000000 57.065921783 2.7005727291 1252.1958008
 2786.9000000 57.073013306 2.6997859478 1252.2341309
 2787.0000000 57.080108643 2.6929950714 1252.2724609
 2787.1000000 57.087200165 2.6877939701 1252.3107910
 2787.2000000 57.094291687 2.6844499111 1252.3491211
 2787.3000000 57.101387024 2.6822118759 1252.3875732
 2787.4000000 57.108478546 2.6803960800 1252.4259033
 2787.5000000 57.115570068 2.6784918308 1252.4642334
 2787.6000000 57.122661591 2.6765768528 1252.5025635
 2787.7000000 57.129756927 2.6752438545 1252.5408936
 2787.8000000 57.136848450 2.6759269238 1252.5792236
 2787.9000000 57.143939972 2.6792328358 1252.6175537
 2788.0000000 57.151031494 2.6852080822 1252.6558838
 2788.1000000 57.158126831 2.6929299831 1252.6942139
 2788.2000000 57.165218353 2.7001969814 1252.7325439
 2788.3000000 57.172309875 2.7002291679 1252.7708740
 2788.4000000 57.179401398 2.7002613544 1252.8092041
 2788.5000000 57.186496735 2.7002935410 1252.8475342
 2788.6000000 57.193588257 2.7003257275 1252.8858643
 2788.7000000 57.394786835 2.7003579140 1252.9241943
 2788.8000000 57.409065247 2.6958119869 1252.9625244
 2788.9000000 57.423347473 2.6912090778 1253.0008545
 2789.0000000 57.437629700 2.6869838238 1253.0391846
 2789.1000000 57.451911926 2.6833510399 1253.0776367
 2789.2000000 57.466194153 2.6801750660 1253.1159668
 2789.3000000 57.480476379 2.6775338650 1253.1542969
 2789.4000000 57.494754791 2.6758339405 1253.1926270
 2789.5000000 57.509037018 2.6749222279 1253.2309570
 2789.6000000 57.523319244 2.6741988659 1253.2692871
 2789.7000000 57.537601471 2.6725039482 1253.3076172
 2789.8000000 57.551883698 2.6733195782 1253.3459473
 2789.9000000 57.566165924 2.6741352081 1253.3842773
 2790.0000000 57.580444336 2.6749508381 1253.4226074
 2790.1000000 57.594726563 2.6757664680 1253.4609375
 2790.2000000 57.609008789 2.6765820980 1253.4992676
 2790.3000000 57.623291016 2.6773977280 1253.5375977
 2790.4000000 57.661674500 2.6782133579 1253.5759277
 2790.5000000 57.700054169 2.6790289879 1253.6142578
 2790.6000000 57.738433838 2.6869289875 1253.6525879
 2790.7000000 57.776813507 2.6923038960 1253.6909180
 2790.8000000 57.815193176 2.6945791245 1253.7292480
 2790.9000000 57.853572845 2.6939628124 1253.7675781
 2791.0000000 57.891956329 2.6913058758 1253.8060303
 2791.1000000 57.930335999 2.6882858276 1253.8443604
 2791.2000000 57.968715668 2.6857728958 1253.8826904
 2791.3000000 58.007095337 2.6844990253 1253.9210205
 2791.4000000 58.726730347 2.6848688126 1253.9593506
 2791.5000000 59.253726959 2.6872110367 1253.9976807
 2791.6000000 59.692638397 2.6918001175 1254.0360107
 2791.7000000 60.082782745 2.6979498863 1254.0743408
 2791.8000000 60.408004761 2.6982986927 1254.1126709
 2791.9000000 60.438022614 2.6986477375 1254.1510010
 2792.0000000 60.468040466 2.6989965439 1254.1893311
 2792.1000000 60.498058319 2.6993453503 1254.2276611
 2792.2000000 60.528072357 2.6996941566 1254.2659912
 2792.3000000 60.558090210 2.7000432014 1254.3043213
 2792.4000000 60.588108063 2.7003920078 1254.3426514
 2792.5000000 60.618125916 2.6943659782 1254.3809814
 2792.6000000 60.648143768 2.6901369095 1254.4193115
 2792.7000000 60.678161621 2.6877520084 1254.4576416
 2792.8000000 60.708179474 2.6865110397 1254.4960938
 2792.9000000 60.738193512 2.6852459908 1254.5344238
 2793.0000000 60.768211365 2.6832518578 1254.5727539
 2793.1000000 60.798229218 2.6809279919 1254.6110840
 2793.2000000 60.828247070 2.6795289516 1254.6494141
 2793.3000000 60.858264923 2.6802759171 1254.6877441
 2793.4000000 60.888282776 2.6832749844 1254.7260742
 2793.5000000 60.918296814 2.6878149509 1254.7644043
 2793.6000000 60.948314667 2.6920759678 1254.8027344
 2793.7000000 60.978332520 2.6942369938 1254.8410645
 2793.8000000 61.008350372 2.6931178570 1254.8793945
 2793.9000000 61.038368225 2.6883997917 1254.9177246
 2794.0000000 61.068386078 2.6820449829 1254.9560547
 2794.1000000 61.098403931 2.6759569645 1254.9943848
 2794.2000000 61.128417969 2.6726508141 1255.0327148
 2794.3000000 61.158435822 2.6731779575 1255.0710449
 2794.4000000 61.188453674 2.6778700352 1255.1093750
 2794.5000000 61.218471527 2.6865391731 1255.1477051
 2794.6000000 59.914539337 2.6970791817 1255.1861572
 2794.7000000 59.853374481 2.6978633404 1255.2244873
 2794.8000000 59.792213440 2.6986472607 1255.2628174
 2794.9000000 59.731048584 2.6994314194 1255.3011475
 2795.0000000 59.669887543 2.7002155781 1255.3394775
 2795.1000000 59.608722687 2.7009994984 1255.3778076
 2795.2000000 59.547561646 2.7017836571 1255.4161377
 2795.3000000 59.486396790 2.7025678158 1255.4544678
 2795.4000000 59.425235748 2.7033517361 1255.4927979
 2795.5000000 59.364070892 2.7041358948 1255.5311279
 2795.6000000 60.341560364 2.7049200535 1255.5694580
 2795.7000000 60.330558777 2.7057039738 1255.6077881
 2795.8000000 60.319557190 2.7064881325 1255.6461182
 2795.9000000 60.308555603 2.6943440437 1255.6844482
 2796.0000000 60.297554016 2.6795389652 1255.7227783
 2796.1000000 60.286552429 2.6791775227 1255.7611084
