# LAS format log file from PETREL
# Project units are specified as depth units
#==================================================================
~Version information
VERS.   2.0:
WRAP.   NO:
#==================================================================
~Well
STRT .m      350.00000000 :
STOP .m      2957.0000000 :
STEP .m     0.10000000 :
NULL .        -999.250000 :
COMP.           : COMPANY
WELL.  P-132   : WELL
FLD.            : FIELD
LOC.            : LOCATION
SRVC.           : SERVICE COMPANY
DATE.  2014-09-16 16:49:33   : Log Export Date {yyyy-MM-dd HH:mm:ss}
PROV.           : PROVINCE
UWI.      : UNIQUE WELL ID
API.            : API NUMBER
#==================================================================
~Curve
DEPT .m                   : DEPTH
Sonic_despiked .us/ft     : Sonic_despiked
RHOB_despiked .g/cm3      : RHOB_despiked
two-waytime .ms           : two-way time
~Parameter
#==================================================================
~Ascii
# ...
 2599.9000000 58.012500763 2.6668169498 1180.8435059
 2600.0000000 58.007072449 2.6723291874 1180.8818359
 2600.1000000 58.001640320 2.6726779938 1180.9200439
 2600.2000000 57.996208191 2.6681609154 1180.9583740
 2600.3000000 57.990776062 2.6626429558 1180.9967041
 2600.4000000 57.985347748 2.6594820023 1181.0350342
 2600.5000000 57.979915619 2.6620030403 1181.0733643
 2600.6000000 57.974483490 2.6695020199 1181.1116943
 2600.7000000 57.969055176 2.6684186459 1181.1500244
 2600.8000000 57.963623047 2.6673350334 1181.1883545
 2600.9000000 57.958190918 2.6662516594 1181.2266846
 2601.0000000 57.952762604 2.6651682854 1181.2650146
 2601.1000000 57.947330475 2.6640849113 1181.3033447
 2601.2000000 57.941898346 2.6630012989 1181.3416748
 2601.3000000 57.936466217 2.6619179249 1181.3800049
 2601.4000000 57.931037903 2.6517410278 1181.4183350
 2601.5000000 57.925605774 2.6486170292 1181.4566650
 2601.6000000 57.920173645 2.6518778801 1181.4949951
 2601.7000000 57.914745331 2.6589970589 1181.5333252
 2601.8000000 57.909313202 2.6648869514 1181.5716553
 2601.9000000 57.903881073 2.6654851437 1181.6099854
 2602.0000000 57.898452759 2.6597480774 1181.6483154
 2602.1000000 57.893020630 2.6495480537 1181.6865234
 2602.2000000 57.887588501 2.6401422024 1181.7248535
 2602.3000000 57.882156372 2.6350648403 1181.7631836
 2602.4000000 57.876728058 2.6365990639 1181.8015137
 2602.5000000 57.871295929 2.6424820423 1181.8398438
 2602.6000000 57.865863800 2.6486539841 1181.8781738
 2602.7000000 57.860435486 2.6502990723 1181.9165039
 2602.8000000 57.855003357 2.6451458931 1181.9548340
 2602.9000000 57.993686676 2.6353812218 1181.9931641
 2603.0000000 58.088783264 2.6329898834 1182.0314941
 2603.1000000 58.241184235 2.6305987835 1182.0698242
 2603.2000000 58.340244293 2.6282074451 1182.1081543
 2603.3000000 58.400291443 2.6296851635 1182.1464844
 2603.4000000 58.596275330 2.6432480812 1182.1848145
 2603.5000000 58.599044800 2.6581549644 1182.2231445
 2603.6000000 58.601814270 2.6593146324 1182.2614746
 2603.7000000 58.604579926 2.6604743004 1182.2998047
 2603.8000000 58.607349396 2.6616339684 1182.3381348
 2603.9000000 58.610118866 2.6627936363 1182.3764648
 2604.0000000 58.612888336 2.6639533043 1182.4147949
 2604.1000000 58.615657806 2.6651129723 1182.4530029
 2604.2000000 58.618427277 2.6600968838 1182.4913330
 2604.3000000 58.621196747 2.6572461128 1182.5296631
 2604.4000000 58.623962402 2.6550569534 1182.5679932
 2604.5000000 58.626731873 2.6519079208 1182.6063232
 2604.6000000 58.629501343 2.6472439766 1182.6446533
 2604.7000000 58.292083740 2.6422150135 1182.6829834
 2604.8000000 58.100364685 2.6388740540 1182.7213135
 2604.9000000 58.104938507 2.6387979984 1182.7596436
 2605.0000000 58.179309845 2.6424551010 1182.7979736
 2605.1000000 58.303363800 2.6472070217 1182.8363037
 2605.2000000 58.552993774 2.6500070095 1182.8746338
 2605.3000000 58.564159393 2.6470129490 1182.9129639
 2605.4000000 58.575325012 2.6383121014 1182.9512939
 2605.5000000 58.586490631 2.6372523308 1182.9896240
 2605.6000000 58.597656250 2.6361923218 1183.0279541
 2605.7000000 58.608818054 2.6351325512 1183.0662842
 2605.8000000 58.619983673 2.6340725422 1183.1046143
 2605.9000000 58.631149292 2.6330127716 1183.1429443
 2606.0000000 58.642314911 2.6319527626 1183.1812744
 2606.1000000 58.653480530 2.6308929920 1183.2196045
 2606.2000000 58.664646149 2.6351850033 1183.2578125
 2606.3000000 58.675811768 2.6311969757 1183.2961426
 2606.4000000 58.686977386 2.6311426163 1183.3344727
 2606.5000000 58.698143005 2.6310882568 1183.3728027
 2606.6000000 58.709308624 2.6310338974 1183.4111328
 2606.7000000 58.720470428 2.6309795380 1183.4494629
 2606.8000000 58.731636047 2.6309251785 1183.4877930
 2606.9000000 58.742801666 2.6308708191 1183.5261230
 2607.0000000 58.753967285 2.6308162212 1183.5644531
 2607.1000000 58.765132904 2.6307618618 1183.6027832
 2607.2000000 58.507686615 2.6307075024 1183.6411133
 2607.3000000 58.505420685 2.6306531429 1183.6794434
 2607.4000000 58.503154755 2.6305987835 1183.7177734
 2607.5000000 58.500888824 2.6305444241 1183.7561035
 2607.6000000 58.498622894 2.6304900646 1183.7944336
 2607.7000000 58.496356964 2.6368269920 1183.8327637
 2607.8000000 58.494094849 2.6440830231 1183.8710938
 2607.9000000 58.491828918 2.6512970924 1183.9094238
 2608.0000000 58.489562988 2.6577019691 1183.9477539
 2608.1000000 58.487297058 2.6625790596 1183.9860840
 2608.2000000 58.485031128 2.6648721695 1184.0242920
 2608.3000000 58.482765198 2.6647911072 1184.0626221
 2608.4000000 58.480499268 2.6632051468 1184.1009521
 2608.5000000 58.478233337 2.6623988152 1184.1392822
 2608.6000000 58.475971222 2.6646111012 1184.1776123
 2608.7000000 58.473705292 2.6636588573 1184.2159424
 2608.8000000 58.471439362 2.6627068520 1184.2542725
 2608.9000000 58.469173431 2.6617546082 1184.2926025
 2609.0000000 58.125377655 2.6608023643 1184.3309326
 2609.1000000 58.114124298 2.6598503590 1184.3692627
 2609.2000000 58.102870941 2.6588981152 1184.4075928
 2609.3000000 58.091617584 2.6579461098 1184.4459229
 2609.4000000 58.080364227 2.6569938660 1184.4842529
 2609.5000000 58.069110870 2.6492900848 1184.5225830
 2609.6000000 58.057861328 2.6466999054 1184.5609131
 2609.7000000 58.046607971 2.6498990059 1184.5992432
 2609.8000000 58.035354614 2.6580181122 1184.6375732
 2609.9000000 58.024101257 2.6669349670 1184.6759033
 2610.0000000 58.012847900 2.6653239727 1184.7142334
 2610.1000000 58.001594543 2.6637129784 1184.7525635
 2610.2000000 57.990341187 2.6621019840 1184.7908936
 2610.3000000 57.979087830 2.6604909897 1184.8291016
 2610.4000000 57.967834473 2.6523191929 1184.8674316
 2610.5000000 57.956581116 2.6459829807 1184.9057617
 2610.6000000 57.945327759 2.6420340538 1184.9440918
 2610.7000000 57.934074402 2.6405448914 1184.9824219
 2610.8000000 57.922824860 2.6412699223 1185.0207520
 2610.9000000 57.911571503 2.6440200806 1185.0590820
 2611.0000000 57.900318146 2.6486740112 1185.0974121
 2611.1000000 57.889064789 2.6539170742 1185.1357422
 2611.2000000 57.877811432 2.6574051380 1185.1740723
 2611.3000000 57.866558075 2.6572499275 1185.2124023
 2611.4000000 57.855304718 2.6527338028 1185.2507324
 2611.5000000 57.945831299 2.6464688778 1185.2890625
 2611.6000000 58.087566376 2.6407489777 1185.3273926
 2611.7000000 58.258861542 2.6374380589 1185.3657227
 2611.8000000 58.241420746 2.6361839771 1185.4040527
 2611.9000000 58.223979950 2.6361188889 1185.4423828
 2612.0000000 58.206539154 2.6365420818 1185.4807129
 2612.1000000 58.189098358 2.6371779442 1185.5190430
 2612.2000000 58.171653748 2.6381478310 1185.5573730
 2612.3000000 58.154212952 2.6397280693 1185.5955811
 2612.4000000 58.136772156 2.6421549320 1185.6339111
 2612.5000000 58.119331360 2.6455018520 1185.6722412
 2612.6000000 58.101890564 2.6496608257 1185.7105713
 2612.7000000 57.880607605 2.6537728310 1185.7489014
 2612.8000000 57.757164001 2.6564791203 1185.7872314
 2612.9000000 57.712966919 2.6566817760 1185.8255615
 2613.0000000 57.554164886 2.6541600227 1185.8638916
 2613.1000000 57.542659760 2.6511240005 1185.9022217
 2613.2000000 57.531154633 2.6498439312 1185.9405518
 2613.3000000 57.519645691 2.6527571678 1185.9788818
 2613.4000000 57.508140564 2.6594290733 1186.0172119
 2613.5000000 57.496635437 2.6682639122 1186.0555420
 2613.6000000 57.485130310 2.6681971550 1186.0938721
 2613.7000000 57.473621368 2.6681306362 1186.1322021
 2613.8000000 57.462116241 2.6680638790 1186.1705322
 2613.9000000 57.450611115 2.6679971218 1186.2088623
 2614.0000000 57.439102173 2.6679303646 1186.2471924
 2614.1000000 57.427597046 2.6678638458 1186.2855225
 2614.2000000 57.416091919 2.6677970886 1186.3238525
 2614.3000000 57.469802856 2.6582241058 1186.3620605
 2614.4000000 57.463314056 2.6476168633 1186.4003906
 2614.5000000 57.456825256 2.6364331245 1186.4387207
 2614.6000000 57.450336456 2.6367435455 1186.4770508
 2614.7000000 57.443847656 2.6370539665 1186.5153809
 2614.8000000 57.437358856 2.6373643875 1186.5537109
 2614.9000000 57.430870056 2.6376748085 1186.5920410
