# LAS format log file from PETREL
# Project units are specified as depth units
#==================================================================
~Version information
VERS.   2.0:
WRAP.   NO:
#==================================================================
~Well
STRT .m      350.00000000 :
STOP .m      2957.0000000 :
STEP .m     0.10000000 :
NULL .        -999.250000 :
COMP.           : COMPANY
WELL.  P-132   : WELL
FLD.            : FIELD
LOC.            : LOCATION
SRVC.           : SERVICE COMPANY
DATE.  2014-09-16 16:49:33   : Log Export Date {yyyy-MM-dd HH:mm:ss}
PROV.           : PROVINCE
UWI.      : UNIQUE WELL ID
API.            : API NUMBER
#==================================================================
~Curve
DEPT .m                   : DEPTH
Sonic_despiked .us/ft     : Sonic_despiked
RHOB_despiked .g/cm3      : RHOB_despiked
two-waytime .ms           : two-way time
~Parameter
#==================================================================
~Ascii
# ...
 908.70000000 66.002258301 2.1068978310 482.77072144
 908.80000000 65.990417480 2.0898678303 482.81338501
 908.90000000 66.099845886 2.0807189941 482.85604858
 909.00000000 66.130020142 2.0768167973 482.89871216
 909.10000000 66.157447815 2.0748059750 482.94137573
 909.20000000 66.204696655 2.0729169846 482.98403931
 909.30000000 66.268394470 2.0713539124 483.02670288
 909.40000000 66.265235901 2.0714790821 483.06936646
 909.50000000 66.262077332 2.0741431713 483.11203003
 909.60000000 66.258918762 2.0796048641 483.15466309
 909.70000000 66.255760193 2.0877780914 483.19732666
 909.80000000 66.252601624 2.0967040062 483.23999023
 909.90000000 66.249443054 2.1049518585 483.28265381
 910.00000000 66.246284485 2.1108770370 483.32531738
 910.10000000 66.243125916 2.1141269207 483.36798096
 910.20000000 66.239967346 2.1149308681 483.41064453
 910.30000000 66.207702637 2.1135709286 483.45330811
 910.40000000 66.175430298 2.1107208729 483.49597168
 910.50000000 66.080940247 2.1068511009 483.53860474
 910.60000000 66.044677734 2.1020748615 483.58126831
 910.70000000 66.058082581 2.0964319706 483.62393188
 910.80000000 66.118743896 2.0900878906 483.66659546
 910.90000000 66.214141846 2.0832901001 483.70925903
 911.00000000 66.217353821 2.0766100883 483.75192261
 911.10000000 66.220565796 2.0706298351 483.79458618
 911.20000000 66.223777771 2.0657079220 483.83724976
 911.30000000 66.226989746 2.0619580746 483.87991333
 911.40000000 66.218482971 2.0588331223 483.92254639
 911.50000000 66.209976196 2.0558710098 483.96520996
 911.60000000 66.201461792 2.0527958870 484.00787354
 911.70000000 66.192955017 2.0497980118 484.05053711
 911.80000000 66.184448242 2.0473639965 484.09320068
 911.90000000 66.175941467 2.0478746891 484.13586426
 912.00000000 66.167434692 2.0483853817 484.17852783
 912.10000000 66.158920288 2.0488960743 484.22119141
 912.20000000 66.150413513 2.0528678894 484.26385498
 912.30000000 66.141906738 2.0584061146 484.30648804
 912.40000000 66.162628174 2.0647819042 484.34915161
 912.50000000 66.164497375 2.0710289478 484.39181519
 912.60000000 66.166366577 2.0755620003 484.43447876
 912.70000000 66.168228149 2.0773291588 484.47714233
 912.80000000 66.170097351 2.0756869316 484.51980591
 912.90000000 66.171966553 2.0701608658 484.56246948
 913.00000000 66.173828125 2.0625038147 484.60513306
 913.10000000 66.175697327 2.0543100834 484.64779663
 913.20000000 66.177566528 2.0556166172 484.69042969
 913.30000000 66.179435730 2.0569229126 484.73309326
 913.40000000 66.181304932 2.0582294464 484.77575684
 913.50000000 66.183166504 2.0595359802 484.81842041
 913.60000000 66.185035706 2.0734469891 484.86108398
 913.70000000 66.186904907 2.0869770050 484.90374756
 913.80000000 66.188766479 2.0952200890 484.94641113
 913.90000000 66.190635681 2.0954041481 484.98907471
 914.00000000 66.192504883 2.0899999142 485.03173828
 914.10000000 66.117523193 2.0828678608 485.07437134
 914.20000000 66.130020142 2.0779020786 485.11703491
 914.30000000 66.173301697 2.0756189823 485.15969849
 914.40000000 66.149093628 2.0745229721 485.20236206
 914.50000000 66.124885559 2.0721120834 485.24502563
 914.60000000 66.100669861 2.0675821304 485.28768921
 914.70000000 66.076461792 2.0616288185 485.33035278
 914.80000000 66.052253723 2.0559661388 485.37301636
 914.90000000 66.028045654 2.0558714867 485.41567993
 915.00000000 66.003829956 2.0557768345 485.45831299
 915.10000000 65.979621887 2.0556824207 485.50097656
 915.20000000 65.955413818 2.0555877686 485.54364014
 915.30000000 65.931205750 2.0554931164 485.58630371
 915.40000000 65.906997681 2.0553984642 485.62896729
 915.50000000 65.882781982 2.0553038120 485.67163086
 915.60000000 65.858573914 2.0552093983 485.71429443
 915.70000000 65.834365845 2.0551147461 485.75695801
 915.80000000 65.952095032 2.0550200939 485.79962158
 915.90000000 65.937347412 2.0605499744 485.84228516
 916.00000000 65.922607422 2.0717561245 485.88491821
 916.10000000 65.907859802 2.0949540138 485.92758179
 916.20000000 65.893112183 2.0957798958 485.97024536
 916.30000000 65.878364563 2.0966057777 486.01290894
 916.40000000 65.863616943 2.0974318981 486.05557251
 916.50000000 65.848869324 2.0982577801 486.09823608
 916.60000000 65.834121704 2.0990836620 486.14089966
 916.70000000 65.819374084 2.0999095440 486.18356323
 916.80000000 65.804626465 2.1007354259 486.22622681
 916.90000000 65.789878845 2.1015615463 486.26885986
 917.00000000 65.775131226 2.1023874283 486.31152344
 917.10000000 65.760383606 2.1032133102 486.35418701
 917.20000000 65.745643616 2.1040391922 486.39685059
 917.30000000 65.730895996 2.1048653126 486.43951416
 917.40000000 65.716148376 2.1056911945 486.48217773
 917.50000000 65.701400757 2.1065170765 486.52484131
 917.60000000 65.686653137 2.0804889202 486.56750488
 917.70000000 65.671905518 2.0709989071 486.61016846
 917.80000000 65.927322388 2.0710470676 486.65280151
 917.90000000 66.057472229 2.0778379440 486.69546509
 918.00000000 66.051582336 2.0893869400 486.73812866
 918.10000000 66.045684814 2.1022660732 486.78079224
 918.20000000 66.039794922 2.1030983925 486.82345581
 918.30000000 66.039428711 2.1039304733 486.86611938
 918.40000000 66.034919739 2.1047625542 486.90878296
 918.50000000 65.953842163 2.1055948734 486.95144653
 918.60000000 65.854179382 2.0958278179 486.99411011
 918.70000000 65.752983093 2.0891079903 487.03674316
 918.80000000 65.655754089 2.0863368511 487.07940674
 918.90000000 65.681045532 2.0862500668 487.12207031
 919.00000000 65.712135315 2.0862040520 487.16473389
 919.10000000 65.680435181 2.0844838619 487.20739746
 919.20000000 65.696586609 2.0811011791 487.25006104
 919.30000000 65.698722839 2.0772140026 487.29272461
 919.40000000 65.604240417 2.0739769936 487.33538818
 919.50000000 65.554557800 2.0717918873 487.37805176
 919.60000000 65.518287659 2.0706942081 487.42068481
 919.70000000 65.545944214 2.0703082085 487.46334839
 919.80000000 65.573600769 2.0704300404 487.50601196
 919.90000000 65.601264954 2.0710420609 487.54867554
 920.00000000 65.628921509 2.0721220970 487.59133911
 920.10000000 65.815162659 2.0735960007 487.63400269
 920.20000000 65.823188782 2.0752999783 487.67666626
 920.30000000 65.831214905 2.0768458843 487.71932983
 920.40000000 65.839241028 2.0778620243 487.76199341
 920.50000000 65.847267151 2.0781002045 487.80462646
 920.60000000 65.855293274 2.0774350166 487.84729004
 920.70000000 65.863319397 2.0761311054 487.88995361
 920.80000000 65.871345520 2.0744221210 487.93261719
 920.90000000 65.879371643 2.0728440285 487.97528076
 921.00000000 65.887397766 2.0731816292 488.01794434
 921.10000000 65.895423889 2.0735192299 488.06060791
 921.20000000 65.903450012 2.0738568306 488.10327148
 921.30000000 65.911476135 2.0763468742 488.14593506
 921.40000000 65.845336914 2.0790338516 488.18856812
 921.50000000 65.778274536 2.0813279152 488.23123169
 921.60000000 65.742614746 2.0829460621 488.27389526
 921.70000000 65.759071350 2.0839979649 488.31655884
 921.80000000 65.823692322 2.0847790241 488.35922241
 921.90000000 65.884040833 2.0857748985 488.40188599
 922.00000000 65.918182373 2.0872550011 488.44454956
 922.10000000 65.950492859 2.0890800953 488.48721313
 922.20000000 65.985237122 2.0904879570 488.52987671
 922.30000000 65.988487244 2.0906851292 488.57250977
 922.40000000 65.991737366 2.0893278122 488.61517334
 922.50000000 65.994987488 2.0867061615 488.65783691
 922.60000000 65.998229980 2.0841310024 488.70050049
 922.70000000 66.001480103 2.0825359821 488.74316406
 922.80000000 66.004730225 2.0825228691 488.78582764
 922.90000000 66.007980347 2.0836651325 488.82849121
 923.00000000 65.992477417 2.0853970051 488.87115479
 923.10000000 65.976974487 2.0874230862 488.91381836
 923.20000000 65.961463928 2.0897381306 488.95645142
 923.30000000 65.911781311 2.0924108028 488.99911499
 923.40000000 65.907211304 2.0953269005 489.04177856
 923.50000000 65.860267639 2.0980358124 489.08444214
 923.60000000 65.863662720 2.1001541615 489.12710571
 923.70000000 65.867050171 2.1015911102 489.16976929
