# LAS format log file from PETREL
# Project units are specified as depth units
#==================================================================
~Version information
VERS.   2.0:
WRAP.   NO:
#==================================================================
~Well
STRT .m      350.00000000 :
STOP .m      2957.0000000 :
STEP .m     0.10000000 :
NULL .        -999.250000 :
COMP.           : COMPANY
WELL.  P-132   : WELL
FLD.            : FIELD
LOC.            : LOCATION
SRVC.           : SERVICE COMPANY
DATE.  2014-09-16 16:49:33   : Log Export Date {yyyy-MM-dd HH:mm:ss}
PROV.           : PROVINCE
UWI.      : UNIQUE WELL ID
API.            : API NUMBER
#==================================================================
~Curve
DEPT .m                   : DEPTH
Sonic_despiked .us/ft     : Sonic_despiked
RHOB_despiked .g/cm3      : RHOB_despiked
two-waytime .ms           : two-way time
~Parameter
#==================================================================
~Ascii
# ...
 2267.7000000 61.159858704 2.6643810272 1050.9918213
 2267.8000000 61.159278870 2.6642410755 1051.0311279
 2267.9000000 61.158699036 2.6636211872 1051.0705566
 2268.0000000 61.158119202 2.6647903919 1051.1099854
 2268.1000000 61.157539368 2.6659595966 1051.1494141
 2268.2000000 61.156963348 2.6671288013 1051.1888428
 2268.3000000 61.156383514 2.6682982445 1051.2282715
 2268.4000000 61.155803680 2.6694674492 1051.2675781
 2268.5000000 61.155223846 2.6706366539 1051.3070068
 2268.6000000 61.154644012 2.6718058586 1051.3464355
 2268.7000000 61.154067993 2.6831741333 1051.3858643
 2268.8000000 61.153488159 2.6904120445 1051.4252930
 2268.9000000 61.152908325 2.6932029724 1051.4647217
 2269.0000000 61.152328491 2.6921219826 1051.5040283
 2269.1000000 61.071384430 2.6878099442 1051.5434570
 2269.2000000 61.068210602 2.6816720963 1051.5828857
 2269.3000000 61.065040588 2.6748669147 1051.6223145
 2269.4000000 61.061866760 2.6682980061 1051.6617432
 2269.5000000 61.058696747 2.6624741554 1051.7011719
 2269.6000000 61.055522919 2.6574130058 1051.7404785
 2269.7000000 61.052352905 2.6563329697 1051.7799072
 2269.8000000 60.738582611 2.6552529335 1051.8193359
 2269.9000000 60.727237701 2.6541731358 1051.8587646
 2270.0000000 60.715892792 2.6530930996 1051.8981934
 2270.1000000 60.704544067 2.6580448151 1051.9376221
 2270.2000000 60.693199158 2.6642050743 1051.9769287
 2270.3000000 60.681854248 2.6707921028 1052.0163574
 2270.4000000 60.670509338 2.6774189472 1052.0557861
 2270.5000000 60.659164429 2.6839962006 1052.0952148
 2270.6000000 60.861248016 2.6836316586 1052.1346436
 2270.7000000 60.854541779 2.6832671165 1052.1740723
 2270.8000000 60.847835541 2.6829025745 1052.2133789
 2270.9000000 60.841129303 2.6825380325 1052.2528076
 2271.0000000 60.834423065 2.6821732521 1052.2922363
 2271.1000000 60.827720642 2.6818087101 1052.3316650
 2271.2000000 60.821014404 2.6814441681 1052.3710938
 2271.3000000 60.814308167 2.6810796261 1052.4105225
 2271.4000000 60.807601929 2.6807150841 1052.4498291
 2271.5000000 60.800895691 2.6803505421 1052.4892578
 2271.6000000 60.794189453 2.6799860001 1052.5286865
 2271.7000000 60.787487030 2.6796214581 1052.5681152
 2271.8000000 60.780780792 2.6792569160 1052.6075439
 2271.9000000 60.774074554 2.6788921356 1052.6469727
 2272.0000000 60.767368317 2.6785275936 1052.6862793
 2272.1000000 60.760662079 2.6781630516 1052.7257080
 2272.2000000 60.753955841 2.6777985096 1052.7651367
 2272.3000000 60.747253418 2.6774339676 1052.8045654
 2272.4000000 60.740547180 2.6695978642 1052.8439941
 2272.5000000 60.733840942 2.6618778706 1052.8834229
 2272.6000000 60.727134705 2.6565310955 1052.9227295
 2272.7000000 60.720428467 2.6546130180 1052.9621582
 2272.8000000 60.713722229 2.6552400589 1053.0015869
 2272.9000000 60.707019806 2.6573679447 1053.0410156
 2273.0000000 60.700313568 2.6604161263 1053.0804443
 2273.1000000 60.693607330 2.6644029617 1053.1198730
 2273.2000000 60.686901093 2.6692748070 1053.1591797
 2273.3000000 60.680194855 2.6734929085 1053.1986084
 2273.4000000 60.673488617 2.6745638847 1053.2380371
 2273.5000000 60.666786194 2.6706759930 1053.2774658
 2273.6000000 60.660079956 2.6614398956 1053.3168945
 2273.7000000 60.653373718 2.6504490376 1053.3563232
 2273.8000000 60.646667480 2.6499414444 1053.3956299
 2273.9000000 60.639961243 2.6494338512 1053.4350586
 2274.0000000 60.633255005 2.6489262581 1053.4744873
 2274.1000000 60.626552582 2.6484186649 1053.5139160
 2274.2000000 60.619846344 2.6479110718 1053.5533447
 2274.3000000 60.613140106 2.6474034786 1053.5927734
 2274.4000000 60.606433868 2.6468958855 1053.6320801
 2274.5000000 60.599727631 2.6463882923 1053.6715088
 2274.6000000 60.593021393 2.6458806992 1053.7109375
 2274.7000000 60.586318970 2.6453731060 1053.7503662
 2274.8000000 60.579612732 2.6510810852 1053.7897949
 2274.9000000 60.572906494 2.6562759876 1053.8292236
 2275.0000000 60.566200256 2.6598680019 1053.8686523
 2275.1000000 60.559494019 2.6614871025 1053.9079590
 2275.2000000 60.552787781 2.6610920429 1053.9473877
 2275.3000000 60.546085358 2.6593849659 1053.9868164
 2275.4000000 60.539379120 2.6566441059 1054.0262451
 2275.5000000 60.532672882 2.6529021263 1054.0656738
 2275.6000000 60.860023499 2.6486310959 1054.1051025
 2275.7000000 61.084358215 2.6446721554 1054.1444092
 2275.8000000 61.233100891 2.6421320438 1054.1838379
 2275.9000000 61.256874084 2.6424324512 1054.2232666
 2276.0000000 61.252227783 2.6427328587 1054.2626953
 2276.1000000 61.247577667 2.6441431046 1054.3021240
 2276.2000000 61.242931366 2.6442990303 1054.3415527
 2276.3000000 61.238281250 2.6428301334 1054.3808594
 2276.4000000 61.194389343 2.6429855824 1054.4202881
 2276.5000000 60.937141418 2.6431410313 1054.4597168
 2276.6000000 60.597595215 2.6432964802 1054.4991455
 2276.7000000 60.635650635 2.6434519291 1054.5385742
 2276.8000000 60.673706055 2.6496310234 1054.5780029
 2276.9000000 60.711761475 2.6574060917 1054.6173096
 2277.0000000 60.749820709 2.6656830311 1054.6567383
 2277.1000000 60.787876129 2.6725919247 1054.6961670
 2277.2000000 60.825931549 2.6756539345 1054.7355957
 2277.3000000 60.863986969 2.6728470325 1054.7750244
 2277.4000000 60.906475067 2.6626679897 1054.8144531
 2277.5000000 60.948966980 2.6467509270 1054.8537598
 2277.6000000 60.991455078 2.6455380917 1054.8931885
 2277.7000000 61.033943176 2.6443252563 1054.9326172
 2277.8000000 61.076431274 2.6431126595 1054.9720459
 2277.9000000 61.118923187 2.6438324451 1055.0114746
 2278.0000000 61.161411285 2.6445522308 1055.0509033
 2278.1000000 61.203899384 2.6452720165 1055.0902100
 2278.2000000 61.246391296 2.6459918022 1055.1296387
 2278.3000000 61.288879395 2.6467118263 1055.1690674
 2278.4000000 60.745723724 2.6474316120 1055.2084961
 2278.5000000 60.767734528 2.6481513977 1055.2479248
 2278.6000000 60.789745331 2.6488711834 1055.2873535
 2278.7000000 60.811756134 2.6585381031 1055.3266602
 2278.8000000 60.833766937 2.6691269875 1055.3660889
 2278.9000000 60.855777740 2.6781539917 1055.4055176
 2279.0000000 60.877788544 2.6824989319 1055.4449463
 2279.1000000 60.899799347 2.6802470684 1055.4843750
 2279.2000000 60.921813965 2.6728119850 1055.5238037
 2279.3000000 60.943824768 2.6628899574 1055.5631104
 2279.4000000 60.965835571 2.6542999744 1055.6025391
 2279.5000000 60.987846375 2.6491689682 1055.6419678
 2279.6000000 61.009857178 2.6478230953 1055.6813965
 2279.7000000 61.031867981 2.6495330334 1055.7208252
 2279.8000000 61.053878784 2.6519629955 1055.7602539
 2279.9000000 61.743030548 2.6537909508 1055.7995605
 2280.0000000 61.792179108 2.6541321278 1055.8389893
 2280.1000000 61.841327667 2.6534121037 1055.8784180
 2280.2000000 61.890476227 2.6525330544 1055.9178467
 2280.3000000 61.939628601 2.6528019905 1055.9572754
 2280.4000000 61.988777161 2.6553049088 1055.9967041
 2280.5000000 62.037925720 2.6605169773 1056.0360107
 2280.6000000 62.087074280 2.6687729359 1056.0754395
 2280.7000000 62.136222839 2.6796531677 1056.1148682
 2280.8000000 61.297412872 2.6919839382 1056.1542969
 2280.9000000 61.293045044 2.6923511028 1056.1937256
 2281.0000000 61.288677216 2.6927185059 1056.2331543
 2281.1000000 61.284305573 2.6930856705 1056.2724609
 2281.2000000 61.279937744 2.6934528351 1056.3118896
 2281.3000000 61.275569916 2.6938202381 1056.3513184
 2281.4000000 61.271202087 2.6941874027 1056.3907471
 2281.5000000 61.266830444 2.6945545673 1056.4301758
 2281.6000000 61.262462616 2.6949219704 1056.4696045
 2281.7000000 61.258094788 2.6927280426 1056.5089111
 2281.8000000 62.051792145 2.6905338764 1056.5483398
 2281.9000000 62.079757690 2.6899030209 1056.5877686
 2282.0000000 62.107723236 2.6924290657 1056.6271973
 2282.1000000 62.135688782 2.6923189163 1056.6666260
 2282.2000000 62.163654327 2.6922085285 1056.7060547
 2282.3000000 62.191619873 2.6920981407 1056.7453613
 2282.4000000 62.219585419 2.6919879913 1056.7847900
 2282.5000000 62.247550964 2.6870429516 1056.8242188
 2282.6000000 62.275516510 2.6846170425 1056.8636475
 2282.7000000 62.303482056 2.6859540939 1056.9030762
