# LAS format log file from PETREL
# Project units are specified as depth units
#==================================================================
~Version information
VERS.   2.0:
WRAP.   NO:
#==================================================================
~Well
STRT .m      350.00000000 :
STOP .m      2957.0000000 :
STEP .m     0.10000000 :
NULL .        -999.250000 :
COMP.           : COMPANY
WELL.  P-132   : WELL
FLD.            : FIELD
LOC.            : LOCATION
SRVC.           : SERVICE COMPANY
DATE.  2014-09-16 16:49:33   : Log Export Date {yyyy-MM-dd HH:mm:ss}
PROV.           : PROVINCE
UWI.      : UNIQUE WELL ID
API.            : API NUMBER
#==================================================================
~Curve
DEPT .m                   : DEPTH
Sonic_despiked .us/ft     : Sonic_despiked
RHOB_despiked .g/cm3      : RHOB_despiked
two-waytime .ms           : two-way time
~Parameter
#==================================================================
~Ascii
# ...
 2433.8000000 58.137245178 2.6407780647 1116.2773438
 2433.9000000 58.311286926 2.6405670643 1116.3165283
 2434.0000000 58.275474548 2.6403563023 1116.3557129
 2434.1000000 58.239658356 2.6401455402 1116.3950195
 2434.2000000 58.203845978 2.6399347782 1116.4342041
 2434.3000000 58.168029785 2.6397240162 1116.4733887
 2434.4000000 58.132217407 2.6415338516 1116.5125732
 2434.5000000 58.096405029 2.6406459808 1116.5517578
 2434.6000000 58.060588837 2.6412014961 1116.5909424
 2434.7000000 58.024776459 2.6417567730 1116.6301270
 2434.8000000 57.988960266 2.6423122883 1116.6694336
 2434.9000000 57.953147888 2.6428675652 1116.7086182
 2435.0000000 57.917331696 2.6434230804 1116.7478027
 2435.1000000 57.881519318 2.6496779919 1116.7869873
 2435.2000000 57.795364380 2.6537981033 1116.8261719
 2435.3000000 57.709205627 2.6535170078 1116.8653564
 2435.4000000 57.623046875 2.6500740051 1116.9046631
 2435.5000000 57.536891937 2.6453549862 1116.9438477
 2435.6000000 57.450733185 2.6417629719 1116.9830322
 2435.7000000 57.542377472 2.6404650211 1117.0222168
 2435.8000000 57.634021759 2.6413340569 1117.0614014
 2435.9000000 57.806842804 2.6436707973 1117.1005859
 2436.0000000 57.906513214 2.6463501453 1117.1397705
 2436.1000000 57.904380798 2.6486690044 1117.1790771
 2436.2000000 57.884872437 2.6502938271 1117.2182617
 2436.3000000 57.825439453 2.6513159275 1117.2574463
 2436.4000000 57.692852020 2.6522428989 1117.2966309
 2436.5000000 57.560565948 2.6536550522 1117.3358154
 2436.6000000 57.437122345 2.6560089588 1117.3750000
 2436.7000000 57.435401917 2.6589369774 1117.4143066
 2436.8000000 57.433685303 2.6617600918 1117.4534912
 2436.9000000 57.431964874 2.6635758877 1117.4926758
 2437.0000000 57.430248260 2.6643149853 1117.5318604
 2437.1000000 57.428527832 2.6643140316 1117.5710449
 2437.2000000 57.426811218 2.6642019749 1117.6102295
 2437.3000000 57.425090790 2.6646680832 1117.6494141
 2437.4000000 57.423374176 2.6662471294 1117.6887207
 2437.5000000 57.421653748 2.6696488857 1117.7279053
 2437.6000000 57.419937134 2.6696591377 1117.7670898
 2437.7000000 57.418216705 2.6696696281 1117.8062744
 2437.8000000 57.416500092 2.6696801186 1117.8454590
 2437.9000000 57.414779663 2.6696903706 1117.8846436
 2438.0000000 57.413063049 2.6697006226 1117.9239502
 2438.1000000 57.411342621 2.6697111130 1117.9631348
 2438.2000000 57.409626007 2.6697216034 1118.0023193
 2438.3000000 57.407905579 2.6697318554 1118.0415039
 2438.4000000 57.406185150 2.6618912220 1118.0806885
 2438.5000000 57.404468536 2.6553769112 1118.1198730
 2438.6000000 57.402748108 2.6501212120 1118.1590576
 2438.7000000 57.401031494 2.6461830139 1118.1983643
 2438.8000000 57.399311066 2.6441020966 1118.2375488
 2438.9000000 57.397594452 2.6440920830 1118.2767334
 2439.0000000 57.395874023 2.6461241245 1118.3159180
 2439.1000000 57.394157410 2.6497647762 1118.3551025
 2439.2000000 57.392436981 2.6537959576 1118.3942871
 2439.3000000 57.390720367 2.6572690010 1118.4335938
 2439.4000000 57.388999939 2.6597847939 1118.4727783
 2439.5000000 57.387283325 2.6614670753 1118.5119629
 2439.6000000 57.385562897 2.6625399590 1118.5511475
 2439.7000000 57.383846283 2.6628229618 1118.5903320
 2439.8000000 57.382125854 2.6619741917 1118.6295166
 2439.9000000 57.380409241 2.6604020596 1118.6687012
 2440.0000000 57.378688812 2.6589169502 1118.7080078
 2440.1000000 57.407421112 2.6589698792 1118.7471924
 2440.2000000 57.436157227 2.6609838009 1118.7863770
 2440.3000000 57.464889526 2.6645448208 1118.8255615
 2440.4000000 57.493621826 2.6679999828 1118.8647461
 2440.5000000 57.522354126 2.6691870689 1118.9039307
 2440.6000000 57.551086426 2.6670048237 1118.9432373
 2440.7000000 57.579818726 2.6615009308 1118.9824219
 2440.8000000 57.608554840 2.6545758247 1119.0216064
 2440.9000000 57.637287140 2.6479599476 1119.0607910
 2441.0000000 57.666019440 2.6475472450 1119.0999756
 2441.1000000 57.694751740 2.6471345425 1119.1391602
 2441.2000000 57.723484039 2.6467218399 1119.1783447
 2441.3000000 57.752216339 2.6463091373 1119.2176514
 2441.4000000 57.830490112 2.6458964348 1119.2568359
 2441.5000000 57.908763885 2.6454837322 1119.2960205
 2441.6000000 57.987037659 2.6450710297 1119.3352051
 2441.7000000 58.065307617 2.6559989452 1119.3743896
 2441.8000000 58.143581390 2.6664650440 1119.4135742
 2441.9000000 58.221855164 2.6666777134 1119.4528809
 2442.0000000 58.300128937 2.6668903828 1119.4920654
 2442.1000000 58.378402710 2.6671030521 1119.5312500
 2442.2000000 58.456676483 2.6673157215 1119.5704346
 2442.3000000 58.534950256 2.6675286293 1119.6096191
 2442.4000000 58.613220215 2.6677412987 1119.6488037
 2442.5000000 58.691493988 2.6679539680 1119.6879883
 2442.6000000 58.769767761 2.6681666374 1119.7272949
 2442.7000000 58.848041534 2.6683793068 1119.7664795
 2442.8000000 59.083347321 2.6685919762 1119.8056641
 2442.9000000 59.143390656 2.6640238762 1119.8448486
 2443.0000000 59.132114410 2.6630339622 1119.8840332
 2443.1000000 59.046157837 2.6649122238 1119.9232178
 2443.2000000 59.147411346 2.6678669453 1119.9625244
 2443.3000000 59.248668671 2.6688749790 1120.0017090
 2443.4000000 59.349922180 2.6667790413 1120.0408936
 2443.5000000 59.451179504 2.6620919704 1120.0800781
 2443.6000000 59.552433014 2.6566720009 1120.1192627
 2443.7000000 60.384845734 2.6526780128 1120.1584473
 2443.8000000 61.374526978 2.6510500908 1120.1976318
 2443.9000000 62.432487488 2.6520910263 1120.2369385
 2444.0000000 62.567321777 2.6550729275 1120.2761230
 2444.1000000 62.702159882 2.6590099335 1120.3153076
 2444.2000000 62.836994171 2.6629900932 1120.3544922
 2444.3000000 62.971832275 2.6658539772 1120.3936768
 2444.4000000 62.998329163 2.6667540073 1120.4328613
 2444.5000000 63.024822235 2.6650760174 1120.4721680
 2444.6000000 63.051319122 2.6607499123 1120.5113525
 2444.7000000 63.077812195 2.6552801132 1120.5505371
 2444.8000000 63.104309082 2.6501040459 1120.5897217
 2444.9000000 63.130802155 2.6470401287 1120.6289063
 2445.0000000 63.157299042 2.6459150314 1120.6680908
 2445.1000000 63.183792114 2.6458840370 1120.7072754
 2445.2000000 63.210289001 2.6454460621 1120.7465820
 2445.3000000 63.236785889 2.6435990334 1120.7857666
 2445.4000000 63.263278961 2.6404318810 1120.8249512
 2445.5000000 63.289775848 2.6368649006 1120.8641357
 2445.6000000 63.316268921 2.6369066238 1120.9033203
 2445.7000000 63.342765808 2.6369483471 1120.9425049
 2445.8000000 63.369258881 2.6369900703 1120.9818115
 2445.9000000 63.395755768 2.6416759491 1121.0209961
 2446.0000000 63.422248840 2.6459360123 1121.0601807
 2446.1000000 63.448745728 2.6472029686 1121.0993652
 2446.2000000 63.475242615 2.6433529854 1121.1385498
 2446.3000000 63.501735687 2.6360359192 1121.1777344
 2446.4000000 63.528232574 2.6357560158 1121.2169189
 2446.5000000 63.554725647 2.6354763508 1121.2562256
 2446.6000000 63.581222534 2.6351964474 1121.2954102
 2446.7000000 63.607715607 2.6349167824 1121.3345947
 2446.8000000 63.634212494 2.6346368790 1121.3737793
 2446.9000000 63.660709381 2.6443619728 1121.4129639
 2447.0000000 63.687202454 2.6540768147 1121.4521484
 2447.1000000 63.713699341 2.6625490189 1121.4914551
 2447.2000000 63.740192413 2.6623144150 1121.5306396
 2447.3000000 63.766689301 2.6620800495 1121.5698242
 2447.4000000 63.793182373 2.6618454456 1121.6090088
 2447.5000000 63.819679260 2.6616108418 1121.6481934
 2447.6000000 63.846172333 2.6613762379 1121.6873779
 2447.7000000 63.872669220 2.6611418724 1121.7265625
 2447.8000000 63.873279572 2.6609072685 1121.7658691
 2447.9000000 63.841949463 2.6606726646 1121.8050537
 2448.0000000 63.810623169 2.6604380608 1121.8442383
 2448.1000000 63.779293060 2.6602036953 1121.8834229
 2448.2000000 63.747962952 2.6599690914 1121.9226074
 2448.3000000 63.716632843 2.6563789845 1121.9617920
 2448.4000000 63.685306549 2.6549298763 1122.0010986
 2448.5000000 63.653976440 2.6541888714 1122.0402832
 2448.6000000 63.622646332 2.6527209282 1122.0794678
 2448.7000000 63.591316223 2.6493768692 1122.1186523
 2448.8000000 63.559986115 2.6439349651 1122.1578369
