# LAS format log file from PETREL
# Project units are specified as depth units
#==================================================================
~Version information
VERS.   2.0:
WRAP.   NO:
#==================================================================
~Well
STRT .m      350.00000000 :
STOP .m      2957.0000000 :
STEP .m     0.10000000 :
NULL .        -999.250000 :
COMP.           : COMPANY
WELL.  P-132   : WELL
FLD.            : FIELD
LOC.            : LOCATION
SRVC.           : SERVICE COMPANY
DATE.  2014-09-16 16:49:33   : Log Export Date {yyyy-MM-dd HH:mm:ss}
PROV.           : PROVINCE
UWI.      : UNIQUE WELL ID
API.            : API NUMBER
#==================================================================
~Curve
DEPT .m                   : DEPTH
Sonic_despiked .us/ft     : Sonic_despiked
RHOB_despiked .g/cm3      : RHOB_despiked
two-waytime .ms           : two-way time
~Parameter
#==================================================================
~Ascii
# ...
 1754.3000000 65.213485718 2.7290470600 830.80645752
 1754.4000000 65.198547363 2.7303740978 830.84814453
 1754.5000000 65.183616638 2.7324590683 830.88983154
 1754.6000000 65.168678284 2.7351899147 830.93151855
 1754.7000000 65.153739929 2.7347092628 830.97320557
 1754.8000000 65.138809204 2.7342286110 831.01489258
 1754.9000000 65.123870850 2.7337479591 831.05657959
 1755.0000000 65.108940125 2.7332673073 831.09826660
 1755.1000000 65.094001770 2.7327866554 831.13995361
 1755.2000000 65.079063416 2.7323060036 831.18164063
 1755.3000000 65.064132690 2.7292950153 831.22332764
 1755.4000000 65.049194336 2.7272310257 831.26501465
 1755.5000000 65.034263611 2.7260601521 831.30670166
 1755.6000000 65.019325256 2.7258369923 831.34838867
 1755.7000000 65.004386902 2.7269170284 831.39007568
 1755.8000000 64.989456177 2.7297890186 831.43176270
 1755.9000000 64.974517822 2.7340910435 831.47344971
 1756.0000000 64.959587097 2.7335011959 831.51513672
 1756.1000000 64.944648743 2.7329115868 831.55682373
 1756.2000000 64.929710388 2.7323217392 831.59851074
 1756.3000000 64.914779663 2.7317318916 831.64019775
 1756.4000000 64.899841309 2.7268419266 831.68188477
 1756.5000000 64.884910583 2.7230839729 831.72357178
 1756.6000000 64.869972229 2.7208898067 831.76525879
 1756.7000000 64.855041504 2.7199151516 831.80694580
 1756.8000000 64.840103149 2.7196187973 831.84863281
 1756.9000000 64.825164795 2.7190959454 831.89031982
 1757.0000000 64.810234070 2.7175619602 831.93200684
 1757.1000000 64.795295715 2.7146239281 831.97369385
 1757.2000000 64.780364990 2.7105128765 832.01538086
 1757.3000000 64.765426636 2.7062170506 832.05706787
 1757.4000000 64.129920959 2.7023420334 832.09875488
 1757.5000000 63.523979187 2.7024435997 832.14044189
 1757.6000000 63.472698212 2.7025451660 832.18212891
 1757.7000000 63.421413422 2.7026469707 832.22381592
 1757.8000000 63.370132446 2.7027485371 832.26550293
 1757.9000000 63.318847656 2.7028501034 832.30718994
 1758.0000000 63.267566681 2.7029516697 832.34887695
 1758.1000000 63.216285706 2.7030534744 832.39056396
 1758.2000000 63.165000916 2.7031550407 832.43225098
 1758.3000000 63.113719940 2.7084140778 832.47393799
 1758.4000000 63.062435150 2.7127959728 832.51568604
 1758.5000000 63.011154175 2.7156100273 832.55737305
 1758.6000000 62.959869385 2.7171111107 832.59906006
 1758.7000000 62.908588409 2.7178068161 832.64074707
 1758.8000000 62.983871460 2.7184109688 832.68243408
 1758.9000000 63.081104279 2.7193629742 832.72412109
 1759.0000000 63.199974060 2.7205071449 832.76580811
 1759.1000000 63.352375031 2.7207801342 832.80749512
 1759.2000000 63.275257111 2.7191708088 832.84918213
 1759.3000000 62.936321259 2.7151830196 832.89086914
 1759.4000000 62.923473358 2.7092099190 832.93255615
 1759.5000000 62.910625458 2.7031669617 832.97424316
 1759.6000000 62.897777557 2.6987371445 833.01593018
 1759.7000000 62.884929657 2.6973049641 833.05761719
 1759.8000000 62.872077942 2.6990220547 833.09930420
 1759.9000000 62.859230042 2.7031078339 833.14099121
 1760.0000000 62.846382141 2.7086119652 833.18267822
 1760.1000000 62.833534241 2.7139508724 833.22436523
 1760.2000000 62.820686340 2.7176320553 833.26605225
 1760.3000000 62.807838440 2.7186169624 833.30773926
 1760.4000000 62.794990540 2.7164659500 833.34942627
 1760.5000000 62.782142639 2.7124240398 833.39111328
 1760.6000000 62.769294739 2.7075171471 833.43280029
 1760.7000000 62.756443024 2.7028338909 833.47448730
 1760.8000000 62.743595123 2.6991519928 833.51617432
 1760.9000000 62.730747223 2.6969230175 833.55786133
 1761.0000000 62.717899323 2.6964519024 833.59954834
 1761.1000000 62.705051422 2.6970539093 833.64123535
 1761.2000000 62.692203522 2.6977870464 833.68292236
 1761.3000000 62.679355621 2.6976609230 833.72460938
 1761.4000000 62.666507721 2.6963529587 833.76629639
 1761.5000000 62.653656006 2.6945681572 833.80798340
 1761.6000000 62.640808105 2.6937241554 833.84967041
 1761.7000000 62.627960205 2.6955208778 833.89135742
 1761.8000000 62.615112305 2.7001578808 833.93304443
 1761.9000000 62.602264404 2.7066178322 833.97473145
 1762.0000000 62.969238281 2.7122318745 834.01641846
 1762.1000000 62.988021851 2.7146661282 834.05810547
 1762.2000000 63.006805420 2.7130060196 834.09979248
 1762.3000000 63.025588989 2.7073531151 834.14147949
 1762.4000000 63.044376373 2.7000300884 834.18316650
 1762.5000000 63.063159943 2.6926419735 834.22485352
 1762.6000000 63.081943512 2.6923310757 834.26654053
 1762.7000000 63.100727081 2.6920199394 834.30822754
 1762.8000000 63.119510651 2.6917090416 834.34991455
 1762.9000000 62.906757355 2.6913979053 834.39160156
 1763.0000000 62.690044403 2.6910870075 834.43328857
 1763.1000000 62.698341370 2.6968729496 834.47497559
 1763.2000000 62.706638336 2.7018148899 834.51666260
 1763.3000000 62.714935303 2.7048101425 834.55834961
 1763.4000000 62.723232269 2.7058720589 834.60003662
 1763.5000000 62.731533051 2.7052118778 834.64172363
 1763.6000000 62.739830017 2.7031998634 834.68341064
 1763.7000000 62.748126984 2.7007660866 834.72509766
 1763.8000000 62.756423950 2.6988182068 834.76678467
 1763.9000000 62.764720917 2.6989619732 834.80847168
 1764.0000000 62.900203705 2.7020769119 834.85015869
 1764.1000000 62.921218872 2.7085618973 834.89184570
 1764.2000000 62.942234039 2.7085387707 834.93353271
 1764.3000000 62.963253021 2.7085156441 834.97521973
 1764.4000000 62.984268188 2.7084925175 835.01690674
 1764.5000000 63.005283356 2.7084693909 835.05859375
 1764.6000000 63.026298523 2.7084465027 835.10028076
 1764.7000000 63.047313690 2.7084233761 835.14196777
 1764.8000000 63.068332672 2.7084002495 835.18365479
 1764.9000000 63.089347839 2.7083771229 835.22534180
 1765.0000000 63.110363007 2.7083539963 835.26702881
 1765.1000000 62.790935516 2.7002990246 835.30871582
 1765.2000000 62.765533447 2.6937808990 835.35040283
 1765.3000000 62.740135193 2.6925935745 835.39208984
 1765.4000000 62.714733124 2.6914062500 835.43377686
 1765.5000000 63.167057037 2.6902189255 835.47546387
 1765.6000000 63.168388367 2.6949441433 835.51715088
 1765.7000000 63.169715881 2.7011969090 835.55883789
 1765.8000000 63.171047211 2.7074790001 835.60052490
 1765.9000000 63.172378540 2.7116949558 835.64221191
 1766.0000000 63.173706055 2.7120621204 835.68389893
 1766.1000000 63.175037384 2.7072930336 835.72558594
 1766.2000000 63.176364899 2.6986110210 835.76727295
 1766.3000000 63.177696228 2.6886579990 835.80895996
 1766.4000000 63.179027557 2.6889750957 835.85064697
 1766.5000000 63.180355072 2.6892919540 835.89233398
 1766.6000000 63.181686401 2.6896090508 835.93402100
 1766.7000000 62.999721527 2.6899259090 835.97570801
 1766.8000000 62.979907990 2.6902430058 836.01739502
 1766.9000000 63.245391846 2.6905598640 836.05908203
 1767.0000000 63.238620758 2.6908769608 836.10076904
 1767.1000000 63.231849670 2.6945948601 836.14245605
 1767.2000000 63.225078583 2.6974241734 836.18414307
 1767.3000000 63.218307495 2.6998579502 836.22583008
 1767.4000000 63.211536407 2.7022271156 836.26751709
 1767.5000000 63.204765320 2.7045061588 836.30920410
 1767.6000000 63.197994232 2.7066540718 836.35089111
 1767.7000000 63.191223145 2.7090280056 836.39257813
 1767.8000000 63.184452057 2.7121760845 836.43426514
 1767.9000000 63.177680969 2.7159650326 836.47595215
 1768.0000000 63.170909882 2.7167670727 836.51763916
 1768.1000000 63.164138794 2.7175691128 836.55932617
 1768.2000000 63.157367706 2.7183711529 836.60101318
 1768.3000000 63.150596619 2.7134418488 836.64270020
 1768.4000000 62.741600037 2.7068789005 836.68438721
 1768.5000000 62.708015442 2.7005801201 836.72607422
 1768.6000000 62.674430847 2.6954770088 836.76776123
 1768.7000000 62.640842438 2.6923182011 836.80944824
 1768.8000000 62.607257843 2.6912300587 836.85113525
 1768.9000000 62.573669434 2.6927070618 836.89282227
 1769.0000000 62.540084839 2.6973619461 836.93450928
 1769.1000000 62.572391510 2.7039871216 836.97619629
 1769.2000000 62.604701996 2.7104880810 837.01788330
 1769.3000000 62.637008667 2.7145619392 837.05957031
